  {
    "id": 1,
    "name": "Goroka",
    "city": "Goroka",
    "country": "Papua New Guinea",
    "iata": "GKA",
    "icao": "AYGA",
    "lat": -6.081689,
    "lon": 145.391881,
    "alt": 5282,
    "tzn": 10,
    "dst": "U",
    "tzndb": "Pacific/Port_Moresby"
  }
  {
    "id": 2,
    "name": "Madang",
    "city": "Madang",
    "country": "Papua New Guinea",
    "iata": "MAG",
    "icao": "AYMD",
    "lat": -5.207083,
    "lon": 145.7887,
    "alt": 20,
    "tzn": 10,
    "dst": "U",
    "tzndb": "Pacific/Port_Moresby"
  }
  {
    "id": 3,
    "name": "Mount Hagen",
    "city": "Mount Hagen",
    "country": "Papua New Guinea",
    "iata": "HGU",
    "icao": "AYMH",
    "lat": -5.826789,
    "lon": 144.295861,
    "alt": 5388,
    "tzn": 10,
    "dst": "U",
    "tzndb": "Pacific/Port_Moresby"
  }
  {
    "id": 4,
    "name": "Nadzab",
    "city": "Nadzab",
    "country": "Papua New Guinea",
    "iata": "LAE",
    "icao": "AYNZ",
    "lat": -6.569828,
    "lon": 146.726242,
    "alt": 239,
    "tzn": 10,
    "dst": "U",
    "tzndb": "Pacific/Port_Moresby"
  }
  {
    "id": 5,
    "name": "Port Moresby Jacksons Intl",
    "city": "Port Moresby",
    "country": "Papua New Guinea",
    "iata": "POM",
    "icao": "AYPY",
    "lat": -9.443383,
    "lon": 147.22005,
    "alt": 146,
    "tzn": 10,
    "dst": "U",
    "tzndb": "Pacific/Port_Moresby"
  }
  {
    "id": 6,
    "name": "Wewak Intl",
    "city": "Wewak",
    "country": "Papua New Guinea",
    "iata": "WWK",
    "icao": "AYWK",
    "lat": -3.583828,
    "lon": 143.669186,
    "alt": 19,
    "tzn": 10,
    "dst": "U",
    "tzndb": "Pacific/Port_Moresby"
  }
  {
    "id": 7,
    "name": "Narsarsuaq",
    "city": "Narssarssuaq",
    "country": "Greenland",
    "iata": "UAK",
    "icao": "BGBW",
    "lat": 61.160517,
    "lon": -45.425978,
    "alt": 112,
    "tzn": -3,
    "dst": "E",
    "tzndb": "America/Godthab"
  }
  {
    "id": 8,
    "name": "Nuuk",
    "city": "Godthaab",
    "country": "Greenland",
    "iata": "GOH",
    "icao": "BGGH",
    "lat": 64.190922,
    "lon": -51.678064,
    "alt": 283,
    "tzn": -3,
    "dst": "E",
    "tzndb": "America/Godthab"
  }
  {
    "id": 9,
    "name": "Sondre Stromfjord",
    "city": "Sondrestrom",
    "country": "Greenland",
    "iata": "SFJ",
    "icao": "BGSF",
    "lat": 67.016969,
    "lon": -50.689325,
    "alt": 165,
    "tzn": -3,
    "dst": "E",
    "tzndb": "America/Godthab"
  }
  {
    "id": 10,
    "name": "Thule Air Base",
    "city": "Thule",
    "country": "Greenland",
    "iata": "THU",
    "icao": "BGTL",
    "lat": 76.531203,
    "lon": -68.703161,
    "alt": 251,
    "tzn": -4,
    "dst": "E",
    "tzndb": "America/Thule"
  }
  {
    "id": 11,
    "name": "Akureyri",
    "city": "Akureyri",
    "country": "Iceland",
    "iata": "AEY",
    "icao": "BIAR",
    "lat": 65.659994,
    "lon": -18.072703,
    "alt": 6,
    "tzn": 0,
    "dst": "N",
    "tzndb": "Atlantic/Reykjavik"
  }
  {
    "id": 12,
    "name": "Egilsstadir",
    "city": "Egilsstadir",
    "country": "Iceland",
    "iata": "EGS",
    "icao": "BIEG",
    "lat": 65.283333,
    "lon": -14.401389,
    "alt": 76,
    "tzn": 0,
    "dst": "N",
    "tzndb": "Atlantic/Reykjavik"
  }
  {
    "id": 13,
    "name": "Hornafjordur",
    "city": "Hofn",
    "country": "Iceland",
    "iata": "HFN",
    "icao": "BIHN",
    "lat": 64.295556,
    "lon": -15.227222,
    "alt": 24,
    "tzn": 0,
    "dst": "N",
    "tzndb": "Atlantic/Reykjavik"
  }
  {
    "id": 14,
    "name": "Husavik",
    "city": "Husavik",
    "country": "Iceland",
    "iata": "HZK",
    "icao": "BIHU",
    "lat": 65.952328,
    "lon": -17.425978,
    "alt": 48,
    "tzn": 0,
    "dst": "N",
    "tzndb": "Atlantic/Reykjavik"
  }
  {
    "id": 15,
    "name": "Isafjordur",
    "city": "Isafjordur",
    "country": "Iceland",
    "iata": "IFJ",
    "icao": "BIIS",
    "lat": 66.058056,
    "lon": -23.135278,
    "alt": 8,
    "tzn": 0,
    "dst": "N",
    "tzndb": "Atlantic/Reykjavik"
  }
  {
    "id": 16,
    "name": "Keflavik International Airport",
    "city": "Keflavik",
    "country": "Iceland",
    "iata": "KEF",
    "icao": "BIKF",
    "lat": 63.985,
    "lon": -22.605556,
    "alt": 171,
    "tzn": 0,
    "dst": "N",
    "tzndb": "Atlantic/Reykjavik"
  }
  {
    "id": 17,
    "name": "Patreksfjordur",
    "city": "Patreksfjordur",
    "country": "Iceland",
    "iata": "PFJ",
    "icao": "BIPA",
    "lat": 65.555833,
    "lon": -23.965,
    "alt": 11,
    "tzn": 0,
    "dst": "N",
    "tzndb": "Atlantic/Reykjavik"
  }
  {
    "id": 18,
    "name": "Reykjavik",
    "city": "Reykjavik",
    "country": "Iceland",
    "iata": "RKV",
    "icao": "BIRK",
    "lat": 64.13,
    "lon": -21.940556,
    "alt": 48,
    "tzn": 0,
    "dst": "N",
    "tzndb": "Atlantic/Reykjavik"
  }
  {
    "id": 19,
    "name": "Siglufjordur",
    "city": "Siglufjordur",
    "country": "Iceland",
    "iata": "SIJ",
    "icao": "BISI",
    "lat": 66.133333,
    "lon": -18.916667,
    "alt": 10,
    "tzn": 0,
    "dst": "N",
    "tzndb": "Atlantic/Reykjavik"
  }
  {
    "id": 20,
    "name": "Vestmannaeyjar",
    "city": "Vestmannaeyjar",
    "country": "Iceland",
    "iata": "VEY",
    "icao": "BIVM",
    "lat": 63.424303,
    "lon": -20.278875,
    "alt": 326,
    "tzn": 0,
    "dst": "N",
    "tzndb": "Atlantic/Reykjavik"
  }
  {
    "id": 21,
    "name": "Sault Ste Marie",
    "city": "Sault Sainte Marie",
    "country": "Canada",
    "iata": "YAM",
    "icao": "CYAM",
    "lat": 46.485001,
    "lon": -84.509445,
    "alt": 630,
    "tzn": -5,
    "dst": "A",
    "tzndb": "America/Toronto"
  }
  {
    "id": 22,
    "name": "Winnipeg St Andrews",
    "city": "Winnipeg",
    "country": "Canada",
    "iata": "YAV",
    "icao": "CYAV",
    "lat": 50.056389,
    "lon": -97.0325,
    "alt": 760,
    "tzn": -6,
    "dst": "A",
    "tzndb": "America/Winnipeg"
  }
  {
    "id": 23,
    "name": "Shearwater",
    "city": "Halifax",
    "country": "Canada",
    "iata": "YAW",
    "icao": "CYAW",
    "lat": 44.639721,
    "lon": -63.499444,
    "alt": 167,
    "tzn": -4,
    "dst": "A",
    "tzndb": "America/Halifax"
  }
  {
    "id": 24,
    "name": "St Anthony",
    "city": "St. Anthony",
    "country": "Canada",
    "iata": "YAY",
    "icao": "CYAY",
    "lat": 51.391944,
    "lon": -56.083056,
    "alt": 108,
    "tzn": -3.5,
    "dst": "A",
    "tzndb": "America/St_Johns"
  }
  {
    "id": 25,
    "name": "Tofino",
    "city": "Tofino",
    "country": "Canada",
    "iata": "YAZ",
    "icao": "CYAZ",
    "lat": 49.082222,
    "lon": -125.7725,
    "alt": 80,
    "tzn": -8,
    "dst": "A",
    "tzndb": "America/Vancouver"
  }
  {
    "id": 26,
    "name": "Kugaaruk",
    "city": "Pelly Bay",
    "country": "Canada",
    "iata": "YBB",
    "icao": "CYBB",
    "lat": 68.534444,
    "lon": -89.808056,
    "alt": 56,
    "tzn": -7,
    "dst": "A",
    "tzndb": "America/Edmonton"
  }
  {
    "id": 27,
    "name": "Baie Comeau",
    "city": "Baie Comeau",
    "country": "Canada",
    "iata": "YBC",
    "icao": "CYBC",
    "lat": 49.1325,
    "lon": -68.204444,
    "alt": 71,
    "tzn": -5,
    "dst": "A",
    "tzndb": "America/Toronto"
  }
  {
    "id": 28,
    "name": "Bagotville",
    "city": "Bagotville",
    "country": "Canada",
    "iata": "YBG",
    "icao": "CYBG",
    "lat": 48.330555,
    "lon": -70.996391,
    "alt": 522,
    "tzn": -5,
    "dst": "A",
    "tzndb": "America/Toronto"
  }
  {
    "id": 29,
    "name": "Baker Lake",
    "city": "Baker Lake",
    "country": "Canada",
    "iata": "YBK",
    "icao": "CYBK",
    "lat": 64.298889,
    "lon": -96.077778,
    "alt": 59,
    "tzn": -6,
    "dst": "A",
    "tzndb": "America/Winnipeg"
  }
  {
    "id": 30,
    "name": "Campbell River",
    "city": "Campbell River",
    "country": "Canada",
    "iata": "YBL",
    "icao": "CYBL",
    "lat": 49.950832,
    "lon": -125.270833,
    "alt": 346,
    "tzn": -8,
    "dst": "A",
    "tzndb": "America/Vancouver"
  }
  {
    "id": 31,
    "name": "Brandon Muni",
    "city": "Brandon",
    "country": "Canada",
    "iata": "YBR",
    "icao": "CYBR",
    "lat": 49.91,
    "lon": -99.951944,
    "alt": 1343,
    "tzn": -6,
    "dst": "A",
    "tzndb": "America/Winnipeg"
  }
  {
    "id": 32,
    "name": "Cambridge Bay",
    "city": "Cambridge Bay",
    "country": "Canada",
    "iata": "YCB",
    "icao": "CYCB",
    "lat": 69.108055,
    "lon": -105.138333,
    "alt": 90,
    "tzn": -7,
    "dst": "A",
    "tzndb": "America/Edmonton"
  }
  {
    "id": 33,
    "name": "Nanaimo",
    "city": "Nanaimo",
    "country": "Canada",
    "iata": "YCD",
    "icao": "CYCD",
    "lat": 49.052333,
    "lon": -123.870167,
    "alt": 93,
    "tzn": -8,
    "dst": "A",
    "tzndb": "America/Vancouver"
  }
  {
    "id": 34,
    "name": "Castlegar",
    "city": "Castlegar",
    "country": "Canada",
    "iata": "YCG",
    "icao": "CYCG",
    "lat": 49.296389,
    "lon": -117.6325,
    "alt": 1624,
    "tzn": -8,
    "dst": "A",
    "tzndb": "America/Vancouver"
  }
  {
    "id": 35,
    "name": "Miramichi",
    "city": "Chatham",
    "country": "Canada",
    "iata": "YCH",
    "icao": "CYCH",
    "lat": 47.007778,
    "lon": -65.449167,
    "alt": 108,
    "tzn": -4,
    "dst": "A",
    "tzndb": "America/Halifax"
  }
  {
    "id": 36,
    "name": "Charlo",
    "city": "Charlo",
    "country": "Canada",
    "iata": "YCL",
    "icao": "CYCL",
    "lat": 47.990833,
    "lon": -66.330278,
    "alt": 132,
    "tzn": -4,
    "dst": "A",
    "tzndb": "America/Halifax"
  }
  {
    "id": 37,
    "name": "Kugluktuk",
    "city": "Coppermine",
    "country": "Canada",
    "iata": "YCO",
    "icao": "CYCO",
    "lat": 67.816667,
    "lon": -115.143889,
    "alt": 74,
    "tzn": -7,
    "dst": "A",
    "tzndb": "America/Edmonton"
  }
  {
    "id": 38,
    "name": "Coronation",
    "city": "Coronation",
    "country": "Canada",
    "iata": "YCT",
    "icao": "CYCT",
    "lat": 52.075001,
    "lon": -111.445278,
    "alt": 2595,
    "tzn": -7,
    "dst": "A",
    "tzndb": "America/Edmonton"
  }
  {
    "id": 39,
    "name": "Chilliwack",
    "city": "Chilliwack",
    "country": "Canada",
    "iata": "YCW",
    "icao": "CYCW",
    "lat": 49.152779,
    "lon": -121.93889,
    "alt": 32,
    "tzn": -8,
    "dst": "A",
    "tzndb": "America/Vancouver"
  }
  {
    "id": 40,
    "name": "Clyde River",
    "city": "Clyde River",
    "country": "Canada",
    "iata": "YCY",
    "icao": "CYCY",
    "lat": 70.486111,
    "lon": -68.516667,
    "alt": 87,
    "tzn": -5,
    "dst": "A",
    "tzndb": "America/Toronto"
  }
  {
    "id": 41,
    "name": "Fairmont Hot Springs",
    "city": "Coral Harbour",
    "country": "Canada",
    "iata": "YZS",
    "icao": "CYCZ",
    "lat": 64.193333,
    "lon": -83.359444,
    "alt": 2661,
    "tzn": -5,
    "dst": "A",
    "tzndb": "America/Coral_Harbour"
  }
  {
    "id": 42,
    "name": "Dawson City",
    "city": "Dawson",
    "country": "Canada",
    "iata": "YDA",
    "icao": "CYDA",
    "lat": 64.043056,
    "lon": -139.127778,
    "alt": 1215,
    "tzn": -8,
    "dst": "A",
    "tzndb": "America/Vancouver"
  }
  {
    "id": 43,
    "name": "Burwash",
    "city": "Burwash",
    "country": "Canada",
    "iata": "YDB",
    "icao": "CYDB",
    "lat": 61.371111,
    "lon": -139.040556,
    "alt": 2647,
    "tzn": -8,
    "dst": "A",
    "tzndb": "America/Vancouver"
  }
  {
    "id": 44,
    "name": "Princeton",
    "city": "Princeton",
    "country": "Canada",
    "iata": "YDC",
    "icao": "CYDC",
    "lat": 49.468056,
    "lon": -120.511389,
    "alt": 2298,
    "tzn": -8,
    "dst": "A",
    "tzndb": "America/Vancouver"
  }
  {
    "id": 45,
    "name": "Deer Lake",
    "city": "Deer Lake",
    "country": "Canada",
    "iata": "YDF",
    "icao": "CYDF",
    "lat": 49.210833,
    "lon": -57.391388,
    "alt": 72,
    "tzn": -3.5,
    "dst": "A",
    "tzndb": "America/St_Johns"
  }
  {
    "id": 46,
    "name": "Dease Lake",
    "city": "Dease Lake",
    "country": "Canada",
    "iata": "YDL",
    "icao": "CYDL",
    "lat": 58.422222,
    "lon": -130.032222,
    "alt": 2600,
    "tzn": -8,
    "dst": "A",
    "tzndb": "America/Vancouver"
  }
  {
    "id": 47,
    "name": "Dauphin Barker",
    "city": "Dauphin",
    "country": "Canada",
    "iata": "YDN",
    "icao": "CYDN",
    "lat": 51.100834,
    "lon": -100.0525,
    "alt": 999,
    "tzn": -6,
    "dst": "A",
    "tzndb": "America/Winnipeg"
  }
  {
    "id": 48,
    "name": "Dawson Creek",
    "city": "Dawson Creek",
    "country": "Canada",
    "iata": "YDQ",
    "icao": "CYDQ",
    "lat": 55.742333,
    "lon": -120.183,
    "alt": 2148,
    "tzn": -7,
    "dst": "A",
    "tzndb": "America/Dawson_Creek"
  }
  {
    "id": 49,
    "name": "Edmonton Intl",
    "city": "Edmonton",
    "country": "Canada",
    "iata": "YEG",
    "icao": "CYEG",
    "lat": 53.309723,
    "lon": -113.579722,
    "alt": 2373,
    "tzn": -7,
    "dst": "A",
    "tzndb": "America/Edmonton"
  }
  {
    "id": 50,
    "name": "Arviat",
    "city": "Eskimo Point",
    "country": "Canada",
    "iata": "YEK",
    "icao": "CYEK",
    "lat": 61.094166,
    "lon": -94.070833,
    "alt": 32,
    "tzn": -6,
    "dst": "A",
    "tzndb": "America/Winnipeg"
  }
  {
    "id": 51,
    "name": "Estevan",
    "city": "Estevan",
    "country": "Canada",
    "iata": "YEN",
    "icao": "CYEN",
    "lat": 49.210278,
    "lon": -102.965833,
    "alt": 1905,
    "tzn": -6,
    "dst": "N",
    "tzndb": "America/Regina"
  }
  {
    "id": 52,
    "name": "Edson",
    "city": "Edson",
    "country": "Canada",
    "iata": "YET",
    "icao": "CYET",
    "lat": 53.578888,
    "lon": -116.465,
    "alt": 3041,
    "tzn": -7,
    "dst": "A",
    "tzndb": "America/Edmonton"
  }
  {
    "id": 53,
    "name": "Eureka",
    "city": "Eureka",
    "country": "Canada",
    "iata": "YEU",
    "icao": "CYEU",
    "lat": 79.994722,
    "lon": -85.814167,
    "alt": 256,
    "tzn": -6,
    "dst": "A",
    "tzndb": "America/Winnipeg"
  }
  {
    "id": 54,
    "name": "Inuvik Mike Zubko",
    "city": "Inuvik",
    "country": "Canada",
    "iata": "YEV",
    "icao": "CYEV",
    "lat": 68.304167,
    "lon": -133.482778,
    "alt": 224,
    "tzn": -7,
    "dst": "A",
    "tzndb": "America/Edmonton"
  }
  {
    "id": 55,
    "name": "Iqaluit",
    "city": "Iqaluit",
    "country": "Canada",
    "iata": "YFB",
    "icao": "CYFB",
    "lat": 63.75639,
    "lon": -68.555832,
    "alt": 110,
    "tzn": -5,
    "dst": "A",
    "tzndb": "America/Toronto"
  }
  {
    "id": 56,
    "name": "Fredericton",
    "city": "Fredericton",
    "country": "Canada",
    "iata": "YFC",
    "icao": "CYFC",
    "lat": 45.868889,
    "lon": -66.537222,
    "alt": 68,
    "tzn": -4,
    "dst": "A",
    "tzndb": "America/Halifax"
  }
  {
    "id": 57,
    "name": "Forestville",
    "city": "Forestville",
    "country": "Canada",
    "iata": "",
    "icao": "CYFE",
    "lat": 48.746111,
    "lon": -69.097222,
    "alt": 293,
    "tzn": -5,
    "dst": "A",
    "tzndb": "America/Toronto"
  }
  {
    "id": 58,
    "name": "Flin Flon",
    "city": "Flin Flon",
    "country": "Canada",
    "iata": "YFO",
    "icao": "CYFO",
    "lat": 54.678055,
    "lon": -101.681667,
    "alt": 997,
    "tzn": -6,
    "dst": "A",
    "tzndb": "America/Winnipeg"
  }
  {
    "id": 59,
    "name": "Fort Resolution",
    "city": "Fort Resolution",
    "country": "Canada",
    "iata": "YFR",
    "icao": "CYFR",
    "lat": 61.180832,
    "lon": -113.689722,
    "alt": 526,
    "tzn": -7,
    "dst": "A",
    "tzndb": "America/Edmonton"
  }
  {
    "id": 60,
    "name": "Fort Simpson",
    "city": "Fort Simpson",
    "country": "Canada",
    "iata": "YFS",
    "icao": "CYFS",
    "lat": 61.760153,
    "lon": -121.236525,
    "alt": 555,
    "tzn": -7,
    "dst": "A",
    "tzndb": "America/Edmonton"
  }
  {
    "id": 61,
    "name": "Kingston",
    "city": "Kingston",
    "country": "Canada",
    "iata": "YGK",
    "icao": "CYGK",
    "lat": 44.225277,
    "lon": -76.596944,
    "alt": 305,
    "tzn": -5,
    "dst": "A",
    "tzndb": "America/Toronto"
  }
  {
    "id": 62,
    "name": "La Grande Riviere",
    "city": "La Grande Riviere",
    "country": "Canada",
    "iata": "YGL",
    "icao": "CYGL",
    "lat": 53.625278,
    "lon": -77.704167,
    "alt": 639,
    "tzn": -5,
    "dst": "A",
    "tzndb": "America/Toronto"
  }
  {
    "id": 63,
    "name": "Gaspe",
    "city": "Gaspe",
    "country": "Canada",
    "iata": "YGP",
    "icao": "CYGP",
    "lat": 48.775278,
    "lon": -64.478611,
    "alt": 108,
    "tzn": -5,
    "dst": "A",
    "tzndb": "America/Toronto"
  }
  {
    "id": 64,
    "name": "Geraldton Greenstone Regional",
    "city": "Geraldton",
    "country": "Canada",
    "iata": "YGQ",
    "icao": "CYGQ",
    "lat": 49.778332,
    "lon": -86.939445,
    "alt": 1144,
    "tzn": -5,
    "dst": "A",
    "tzndb": "America/Toronto"
  }
  {
    "id": 65,
    "name": "Iles De La Madeleine",
    "city": "Iles De La Madeleine",
    "country": "Canada",
    "iata": "YGR",
    "icao": "CYGR",
    "lat": 47.424721,
    "lon": -61.778056,
    "alt": 35,
    "tzn": -5,
    "dst": "A",
    "tzndb": "America/Toronto"
  }
  {
    "id": 66,
    "name": "Hudson Bay",
    "city": "Hudson Bay",
    "country": "Canada",
    "iata": "YHB",
    "icao": "CYHB",
    "lat": 52.816666,
    "lon": -102.31139,
    "alt": 1175,
    "tzn": -6,
    "dst": "N",
    "tzndb": "America/Regina"
  }
  {
    "id": 67,
    "name": "Dryden Rgnl",
    "city": "Dryden",
    "country": "Canada",
    "iata": "YHD",
    "icao": "CYHD",
    "lat": 49.831667,
    "lon": -92.744167,
    "alt": 1354,
    "tzn": -6,
    "dst": "A",
    "tzndb": "America/Winnipeg"
  }
  {
    "id": 68,
    "name": "Ulukhaktok Holman",
    "city": "Holman Island",
    "country": "Canada",
    "iata": "YHI",
    "icao": "CYHI",
    "lat": 70.762778,
    "lon": -117.806111,
    "alt": 117,
    "tzn": -7,
    "dst": "A",
    "tzndb": "America/Edmonton"
  }
  {
    "id": 69,
    "name": "Gjoa Haven",
    "city": "Gjoa Haven",
    "country": "Canada",
    "iata": "YHK",
    "icao": "CYHK",
    "lat": 68.635556,
    "lon": -95.849722,
    "alt": 152,
    "tzn": -7,
    "dst": "A",
    "tzndb": "America/Edmonton"
  }
  {
    "id": 70,
    "name": "Hamilton",
    "city": "Hamilton",
    "country": "Canada",
    "iata": "YHM",
    "icao": "CYHM",
    "lat": 43.173611,
    "lon": -79.935,
    "alt": 780,
    "tzn": -5,
    "dst": "A",
    "tzndb": "America/Toronto"
  }
  {
    "id": 71,
    "name": "St Hubert",
    "city": "Montreal",
    "country": "Canada",
    "iata": "YHU",
    "icao": "CYHU",
    "lat": 45.5175,
    "lon": -73.416944,
    "alt": 90,
    "tzn": -5,
    "dst": "A",
    "tzndb": "America/Toronto"
  }
  {
    "id": 72,
    "name": "Hay River",
    "city": "Hay River",
    "country": "Canada",
    "iata": "YHY",
    "icao": "CYHY",
    "lat": 60.839722,
    "lon": -115.782778,
    "alt": 543,
    "tzn": -7,
    "dst": "A",
    "tzndb": "America/Edmonton"
  }
  {
    "id": 73,
    "name": "Halifax Intl",
    "city": "Halifax",
    "country": "Canada",
    "iata": "YHZ",
    "icao": "CYHZ",
    "lat": 44.880833,
    "lon": -63.50861,
    "alt": 477,
    "tzn": -4,
    "dst": "A",
    "tzndb": "America/Halifax"
  }
  {
    "id": 74,
    "name": "Atikokan Muni",
    "city": "Atikokan",
    "country": "Canada",
    "iata": "YIB",
    "icao": "CYIB",
    "lat": 48.773888,
    "lon": -91.638611,
    "alt": 1408,
    "tzn": -5,
    "dst": "A",
    "tzndb": "America/Coral_Harbour"
  }
  {
    "id": 75,
    "name": "Pond Inlet",
    "city": "Pond Inlet",
    "country": "Canada",
    "iata": "YIO",
    "icao": "CYIO",
    "lat": 72.683334,
    "lon": -77.966667,
    "alt": 181,
    "tzn": -5,
    "dst": "A",
    "tzndb": "America/Toronto"
  }
  {
    "id": 76,
    "name": "St Jean",
    "city": "St. Jean",
    "country": "Canada",
    "iata": "YJN",
    "icao": "CYJN",
    "lat": 45.294445,
    "lon": -73.281111,
    "alt": 136,
    "tzn": -5,
    "dst": "A",
    "tzndb": "America/Toronto"
  }
  {
    "id": 77,
    "name": "Stephenville",
    "city": "Stephenville",
    "country": "Canada",
    "iata": "YJT",
    "icao": "CYJT",
    "lat": 48.544167,
    "lon": -58.549999,
    "alt": 80,
    "tzn": -3.5,
    "dst": "A",
    "tzndb": "America/St_Johns"
  }
  {
    "id": 78,
    "name": "Kamloops",
    "city": "Kamloops",
    "country": "Canada",
    "iata": "YKA",
    "icao": "CYKA",
    "lat": 50.702222,
    "lon": -120.444444,
    "alt": 1133,
    "tzn": -8,
    "dst": "A",
    "tzndb": "America/Vancouver"
  }
  {
    "id": 79,
    "name": "Waterloo",
    "city": "Waterloo",
    "country": "Canada",
    "iata": "YKF",
    "icao": "CYKF",
    "lat": 43.460833,
    "lon": -80.378611,
    "alt": 1054,
    "tzn": -5,
    "dst": "A",
    "tzndb": "America/Toronto"
  }
  {
    "id": 80,
    "name": "Schefferville",
    "city": "Schefferville",
    "country": "Canada",
    "iata": "YKL",
    "icao": "CYKL",
    "lat": 54.805278,
    "lon": -66.805278,
    "alt": 1709,
    "tzn": -5,
    "dst": "A",
    "tzndb": "America/Toronto"
  }
  {
    "id": 81,
    "name": "Kindersley",
    "city": "Kindersley",
    "country": "Canada",
    "iata": "YKY",
    "icao": "CYKY",
    "lat": 51.5175,
    "lon": -109.180833,
    "alt": 2277,
    "tzn": -6,
    "dst": "N",
    "tzndb": "America/Regina"
  }
  {
    "id": 82,
    "name": "Buttonville Muni",
    "city": "Toronto",
    "country": "Canada",
    "iata": "YKZ",
    "icao": "CYKZ",
    "lat": 43.862221,
    "lon": -79.37,
    "alt": 650,
    "tzn": -5,
    "dst": "A",
    "tzndb": "America/Toronto"
  }
  {
    "id": 83,
    "name": "Chapleau",
    "city": "Chapleau",
    "country": "Canada",
    "iata": "YLD",
    "icao": "CYLD",
    "lat": 47.82,
    "lon": -83.346667,
    "alt": 1470,
    "tzn": -5,
    "dst": "A",
    "tzndb": "America/Toronto"
  }
  {
    "id": 84,
    "name": "Meadow Lake",
    "city": "Meadow Lake",
    "country": "Canada",
    "iata": "YLJ",
    "icao": "CYLJ",
    "lat": 54.125278,
    "lon": -108.522778,
    "alt": 1576,
    "tzn": -6,
    "dst": "N",
    "tzndb": "America/Regina"
  }
  {
    "id": 85,
    "name": "Lloydminster",
    "city": "Lloydminster",
    "country": "Canada",
    "iata": "YLL",
    "icao": "CYLL",
    "lat": 53.309166,
    "lon": -110.0725,
    "alt": 2193,
    "tzn": -7,
    "dst": "A",
    "tzndb": "America/Edmonton"
  }
  {
    "id": 86,
    "name": "Alert",
    "city": "Alert",
    "country": "Canada",
    "iata": "YLT",
    "icao": "CYLT",
    "lat": 82.517778,
    "lon": -62.280556,
    "alt": 100,
    "tzn": -5,
    "dst": "A",
    "tzndb": "America/Toronto"
  }
  {
    "id": 87,
    "name": "Kelowna",
    "city": "Kelowna",
    "country": "Canada",
    "iata": "YLW",
    "icao": "CYLW",
    "lat": 49.956112,
    "lon": -119.377778,
    "alt": 1409,
    "tzn": -8,
    "dst": "A",
    "tzndb": "America/Vancouver"
  }
  {
    "id": 88,
    "name": "Mayo",
    "city": "Mayo",
    "country": "Canada",
    "iata": "YMA",
    "icao": "CYMA",
    "lat": 63.616389,
    "lon": -135.868333,
    "alt": 1653,
    "tzn": -8,
    "dst": "A",
    "tzndb": "America/Vancouver"
  }
  {
    "id": 89,
    "name": "Moose Jaw Air Vice Marshal C M Mcewen",
    "city": "Moose Jaw",
    "country": "Canada",
    "iata": "YMJ",
    "icao": "CYMJ",
    "lat": 50.330278,
    "lon": -105.559167,
    "alt": 1892,
    "tzn": -6,
    "dst": "N",
    "tzndb": "America/Regina"
  }
  {
    "id": 90,
    "name": "Fort Mcmurray",
    "city": "Fort Mcmurray",
    "country": "Canada",
    "iata": "YMM",
    "icao": "CYMM",
    "lat": 56.653333,
    "lon": -111.221944,
    "alt": 1211,
    "tzn": -7,
    "dst": "A",
    "tzndb": "America/Edmonton"
  }
  {
    "id": 91,
    "name": "Moosonee",
    "city": "Moosonee",
    "country": "Canada",
    "iata": "YMO",
    "icao": "CYMO",
    "lat": 51.291111,
    "lon": -80.607778,
    "alt": 30,
    "tzn": -5,
    "dst": "A",
    "tzndb": "America/Toronto"
  }
  {
    "id": 92,
    "name": "Maniwaki",
    "city": "Maniwaki",
    "country": "Canada",
    "iata": "YMW",
    "icao": "CYMW",
    "lat": 46.272778,
    "lon": -75.990556,
    "alt": 656,
    "tzn": -5,
    "dst": "A",
    "tzndb": "America/Toronto"
  }
  {
    "id": 93,
    "name": "Montreal Intl Mirabel",
    "city": "Montreal",
    "country": "Canada",
    "iata": "YMX",
    "icao": "CYMX",
    "lat": 45.681944,
    "lon": -74.005278,
    "alt": 270,
    "tzn": -5,
    "dst": "A",
    "tzndb": "America/Toronto"
  }
  {
    "id": 94,
    "name": "Natashquan",
    "city": "Natashquan",
    "country": "Canada",
    "iata": "YNA",
    "icao": "CYNA",
    "lat": 50.19,
    "lon": -61.789167,
    "alt": 39,
    "tzn": -5,
    "dst": "A",
    "tzndb": "America/Toronto"
  }
  {
    "id": 95,
    "name": "Gatineau",
    "city": "Gatineau",
    "country": "Canada",
    "iata": "YND",
    "icao": "CYND",
    "lat": 45.521694,
    "lon": -75.563589,
    "alt": 211,
    "tzn": -5,
    "dst": "A",
    "tzndb": "America/Toronto"
  }
  {
    "id": 96,
    "name": "Matagami",
    "city": "Matagami",
    "country": "Canada",
    "iata": "YNM",
    "icao": "CYNM",
    "lat": 49.761667,
    "lon": -77.802778,
    "alt": 918,
    "tzn": -5,
    "dst": "A",
    "tzndb": "America/Toronto"
  }
  {
    "id": 97,
    "name": "Old Crow",
    "city": "Old Crow",
    "country": "Canada",
    "iata": "YOC",
    "icao": "CYOC",
    "lat": 67.570556,
    "lon": -139.839167,
    "alt": 824,
    "tzn": -8,
    "dst": "A",
    "tzndb": "America/Vancouver"
  }
  {
    "id": 98,
    "name": "Cold Lake",
    "city": "Cold Lake",
    "country": "Canada",
    "iata": "YOD",
    "icao": "CYOD",
    "lat": 54.404999,
    "lon": -110.279444,
    "alt": 1775,
    "tzn": -7,
    "dst": "A",
    "tzndb": "America/Edmonton"
  }
  {
    "id": 99,
    "name": "High Level",
    "city": "High Level",
    "country": "Canada",
    "iata": "YOJ",
    "icao": "CYOJ",
    "lat": 58.621389,
    "lon": -117.164722,
    "alt": 1110,
    "tzn": -7,
    "dst": "A",
    "tzndb": "America/Edmonton"
  }
  {
    "id": 100,
    "name": "Ottawa Macdonald Cartier Intl",
    "city": "Ottawa",
    "country": "Canada",
    "iata": "YOW",
    "icao": "CYOW",
    "lat": 45.3225,
    "lon": -75.669167,
    "alt": 374,
    "tzn": -5,
    "dst": "A",
    "tzndb": "America/Toronto"
  }
  {
    "id": 101,
    "name": "Prince Albert Glass Field",
    "city": "Prince Albert",
    "country": "Canada",
    "iata": "YPA",
    "icao": "CYPA",
    "lat": 53.214167,
    "lon": -105.672778,
    "alt": 1405,
    "tzn": -6,
    "dst": "N",
    "tzndb": "America/Regina"
  }
  {
    "id": 102,
    "name": "Peace River",
    "city": "Peace River",
    "country": "Canada",
    "iata": "YPE",
    "icao": "CYPE",
    "lat": 56.226944,
    "lon": -117.447222,
    "alt": 1873,
    "tzn": -7,
    "dst": "A",
    "tzndb": "America/Edmonton"
  }
  {
    "id": 103,
    "name": "Southport",
    "city": "Portage-la-prairie",
    "country": "Canada",
    "iata": "YPG",
    "icao": "CYPG",
    "lat": 49.903056,
    "lon": -98.273889,
    "alt": 885,
    "tzn": -6,
    "dst": "A",
    "tzndb": "America/Winnipeg"
  }
  {
    "id": 104,
    "name": "Pitt Meadows",
    "city": "Pitt Meadows",
    "country": "Canada",
    "iata": "",
    "icao": "CYPK",
    "lat": 49.21611,
    "lon": -122.71,
    "alt": 11,
    "tzn": -8,
    "dst": "A",
    "tzndb": "America/Vancouver"
  }
  {
    "id": 105,
    "name": "Pickle Lake",
    "city": "Pickle Lake",
    "country": "Canada",
    "iata": "YPL",
    "icao": "CYPL",
    "lat": 51.446388,
    "lon": -90.214167,
    "alt": 1267,
    "tzn": -5,
    "dst": "A",
    "tzndb": "America/Coral_Harbour"
  }
  {
    "id": 106,
    "name": "Port Menier",
    "city": "Port Menier",
    "country": "Canada",
    "iata": "YPN",
    "icao": "CYPN",
    "lat": 49.836389,
    "lon": -64.288611,
    "alt": 167,
    "tzn": -5,
    "dst": "A",
    "tzndb": "America/Toronto"
  }
  {
    "id": 107,
    "name": "Peterborough",
    "city": "Peterborough",
    "country": "Canada",
    "iata": "YPQ",
    "icao": "CYPQ",
    "lat": 44.23,
    "lon": -78.363333,
    "alt": 628,
    "tzn": -5,
    "dst": "A",
    "tzndb": "America/Toronto"
  }
  {
    "id": 108,
    "name": "Prince Rupert",
    "city": "Prince Pupert",
    "country": "Canada",
    "iata": "YPR",
    "icao": "CYPR",
    "lat": 54.28611,
    "lon": -130.444722,
    "alt": 116,
    "tzn": -8,
    "dst": "A",
    "tzndb": "America/Vancouver"
  }
  {
    "id": 109,
    "name": "Fort Chipewyan",
    "city": "Fort Chipewyan",
    "country": "Canada",
    "iata": "YPY",
    "icao": "CYPY",
    "lat": 58.767223,
    "lon": -111.117222,
    "alt": 761,
    "tzn": -7,
    "dst": "A",
    "tzndb": "America/Edmonton"
  }
  {
    "id": 110,
    "name": "Muskoka",
    "city": "Muskoka",
    "country": "Canada",
    "iata": "YQA",
    "icao": "CYQA",
    "lat": 44.974722,
    "lon": -79.303333,
    "alt": 925,
    "tzn": -5,
    "dst": "A",
    "tzndb": "America/Toronto"
  }
  {
    "id": 111,
    "name": "Quebec Jean Lesage Intl",
    "city": "Quebec",
    "country": "Canada",
    "iata": "YQB",
    "icao": "CYQB",
    "lat": 46.791111,
    "lon": -71.393333,
    "alt": 244,
    "tzn": -5,
    "dst": "A",
    "tzndb": "America/Toronto"
  }
  {
    "id": 112,
    "name": "Red Deer Regional",
    "city": "Red Deer Industrial",
    "country": "Canada",
    "iata": "YQF",
    "icao": "CYQF",
    "lat": 52.182222,
    "lon": -113.894444,
    "alt": 2968,
    "tzn": -7,
    "dst": "A",
    "tzndb": "America/Edmonton"
  }
  {
    "id": 113,
    "name": "Windsor",
    "city": "Windsor",
    "country": "Canada",
    "iata": "YQG",
    "icao": "CYQG",
    "lat": 42.275556,
    "lon": -82.955556,
    "alt": 622,
    "tzn": -5,
    "dst": "A",
    "tzndb": "America/Toronto"
  }
  {
    "id": 114,
    "name": "Watson Lake",
    "city": "Watson Lake",
    "country": "Canada",
    "iata": "YQH",
    "icao": "CYQH",
    "lat": 60.116389,
    "lon": -128.8225,
    "alt": 2255,
    "tzn": -8,
    "dst": "A",
    "tzndb": "America/Vancouver"
  }
  {
    "id": 115,
    "name": "Kenora",
    "city": "Kenora",
    "country": "Canada",
    "iata": "YQK",
    "icao": "CYQK",
    "lat": 49.788334,
    "lon": -94.363056,
    "alt": 1332,
    "tzn": -6,
    "dst": "A",
    "tzndb": "America/Winnipeg"
  }
  {
    "id": 116,
    "name": "Lethbridge",
    "city": "Lethbridge",
    "country": "Canada",
    "iata": "YQL",
    "icao": "CYQL",
    "lat": 49.630278,
    "lon": -112.799722,
    "alt": 3047,
    "tzn": -7,
    "dst": "A",
    "tzndb": "America/Edmonton"
  }
  {
    "id": 117,
    "name": "Greater Moncton Intl",
    "city": "Moncton",
    "country": "Canada",
    "iata": "YQM",
    "icao": "CYQM",
    "lat": 46.112221,
    "lon": -64.678611,
    "alt": 232,
    "tzn": -4,
    "dst": "A",
    "tzndb": "America/Halifax"
  }
  {
    "id": 119,
    "name": "Comox",
    "city": "Comox",
    "country": "Canada",
    "iata": "YQQ",
    "icao": "CYQQ",
    "lat": 49.710833,
    "lon": -124.886667,
    "alt": 84,
    "tzn": -8,
    "dst": "A",
    "tzndb": "America/Vancouver"
  }
  {
    "id": 120,
    "name": "Regina Intl",
    "city": "Regina",
    "country": "Canada",
    "iata": "YQR",
    "icao": "CYQR",
    "lat": 50.431944,
    "lon": -104.665833,
    "alt": 1894,
    "tzn": -6,
    "dst": "N",
    "tzndb": "America/Regina"
  }
  {
    "id": 121,
    "name": "Thunder Bay",
    "city": "Thunder Bay",
    "country": "Canada",
    "iata": "YQT",
    "icao": "CYQT",
    "lat": 48.371944,
    "lon": -89.323889,
    "alt": 653,
    "tzn": -5,
    "dst": "A",
    "tzndb": "America/Toronto"
  }
  {
    "id": 122,
    "name": "Grande Prairie",
    "city": "Grande Prairie",
    "country": "Canada",
    "iata": "YQU",
    "icao": "CYQU",
    "lat": 55.179722,
    "lon": -118.885,
    "alt": 2195,
    "tzn": -7,
    "dst": "A",
    "tzndb": "America/Edmonton"
  }
  {
    "id": 123,
    "name": "Yorkton Muni",
    "city": "Yorkton",
    "country": "Canada",
    "iata": "YQV",
    "icao": "CYQV",
    "lat": 51.264721,
    "lon": -102.461667,
    "alt": 1635,
    "tzn": -6,
    "dst": "N",
    "tzndb": "America/Regina"
  }
  {
    "id": 124,
    "name": "North Battleford",
    "city": "North Battleford",
    "country": "Canada",
    "iata": "YQW",
    "icao": "CYQW",
    "lat": 52.769167,
    "lon": -108.24361,
    "alt": 1799,
    "tzn": -6,
    "dst": "N",
    "tzndb": "America/Regina"
  }
  {
    "id": 125,
    "name": "Gander Intl",
    "city": "Gander",
    "country": "Canada",
    "iata": "YQX",
    "icao": "CYQX",
    "lat": 48.936944,
    "lon": -54.568056,
    "alt": 496,
    "tzn": -3.5,
    "dst": "A",
    "tzndb": "America/St_Johns"
  }
  {
    "id": 126,
    "name": "Sydney",
    "city": "Sydney",
    "country": "Canada",
    "iata": "YQY",
    "icao": "CYQY",
    "lat": 46.161388,
    "lon": -60.047779,
    "alt": 203,
    "tzn": -4,
    "dst": "A",
    "tzndb": "America/Halifax"
  }
  {
    "id": 127,
    "name": "Quesnel",
    "city": "Quesnel",
    "country": "Canada",
    "iata": "YQZ",
    "icao": "CYQZ",
    "lat": 53.026112,
    "lon": -122.510278,
    "alt": 1789,
    "tzn": -8,
    "dst": "A",
    "tzndb": "America/Vancouver"
  }
  {
    "id": 128,
    "name": "Resolute Bay",
    "city": "Resolute",
    "country": "Canada",
    "iata": "YRB",
    "icao": "CYRB",
    "lat": 74.716944,
    "lon": -94.969444,
    "alt": 215,
    "tzn": -6,
    "dst": "A",
    "tzndb": "America/Winnipeg"
  }
  {
    "id": 129,
    "name": "Riviere Du Loup",
    "city": "Riviere Du Loup",
    "country": "Canada",
    "iata": "YRI",
    "icao": "CYRI",
    "lat": 47.764444,
    "lon": -69.584722,
    "alt": 427,
    "tzn": -5,
    "dst": "A",
    "tzndb": "America/Toronto"
  }
  {
    "id": 130,
    "name": "Roberval",
    "city": "Roberval",
    "country": "Canada",
    "iata": "YRJ",
    "icao": "CYRJ",
    "lat": 48.52,
    "lon": -72.265556,
    "alt": 586,
    "tzn": -5,
    "dst": "A",
    "tzndb": "America/Toronto"
  }
  {
    "id": 131,
    "name": "Rocky Mountain House",
    "city": "Rocky Mountain House",
    "country": "Canada",
    "iata": "YRM",
    "icao": "CYRM",
    "lat": 52.429722,
    "lon": -114.904167,
    "alt": 3244,
    "tzn": -7,
    "dst": "A",
    "tzndb": "America/Edmonton"
  }
  {
    "id": 132,
    "name": "Rankin Inlet",
    "city": "Rankin Inlet",
    "country": "Canada",
    "iata": "YRT",
    "icao": "CYRT",
    "lat": 62.81139,
    "lon": -92.115833,
    "alt": 94,
    "tzn": -6,
    "dst": "A",
    "tzndb": "America/Winnipeg"
  }
  {
    "id": 133,
    "name": "Sudbury",
    "city": "Sudbury",
    "country": "Canada",
    "iata": "YSB",
    "icao": "CYSB",
    "lat": 46.625,
    "lon": -80.798889,
    "alt": 1141,
    "tzn": -5,
    "dst": "A",
    "tzndb": "America/Toronto"
  }
  {
    "id": 134,
    "name": "Sherbrooke",
    "city": "Sherbrooke",
    "country": "Canada",
    "iata": "YSC",
    "icao": "CYSC",
    "lat": 45.438611,
    "lon": -71.691389,
    "alt": 792,
    "tzn": -5,
    "dst": "A",
    "tzndb": "America/Toronto"
  }
  {
    "id": 135,
    "name": "Saint John",
    "city": "St. John",
    "country": "Canada",
    "iata": "YSJ",
    "icao": "CYSJ",
    "lat": 45.316111,
    "lon": -65.890278,
    "alt": 357,
    "tzn": -4,
    "dst": "A",
    "tzndb": "America/Halifax"
  }
  {
    "id": 136,
    "name": "Fort Smith",
    "city": "Fort Smith",
    "country": "Canada",
    "iata": "YSM",
    "icao": "CYSM",
    "lat": 60.020278,
    "lon": -111.961944,
    "alt": 671,
    "tzn": -7,
    "dst": "A",
    "tzndb": "America/Edmonton"
  }
  {
    "id": 137,
    "name": "Nanisivik",
    "city": "Nanisivik",
    "country": "Canada",
    "iata": "YSR",
    "icao": "CYSR",
    "lat": 72.982222,
    "lon": -84.613611,
    "alt": 2106,
    "tzn": -5,
    "dst": "A",
    "tzndb": "America/Toronto"
  }
  {
    "id": 138,
    "name": "Summerside",
    "city": "Summerside",
    "country": "Canada",
    "iata": "YSU",
    "icao": "CYSU",
    "lat": 46.440556,
    "lon": -63.833611,
    "alt": 56,
    "tzn": -4,
    "dst": "A",
    "tzndb": "America/Halifax"
  }
  {
    "id": 139,
    "name": "Sachs Harbour",
    "city": "Sachs Harbour",
    "country": "Canada",
    "iata": "YSY",
    "icao": "CYSY",
    "lat": 71.993889,
    "lon": -125.2425,
    "alt": 282,
    "tzn": -7,
    "dst": "A",
    "tzndb": "America/Edmonton"
  }
  {
    "id": 140,
    "name": "Cape Dorset",
    "city": "Cape Dorset",
    "country": "Canada",
    "iata": "YTE",
    "icao": "CYTE",
    "lat": 64.23,
    "lon": -76.526667,
    "alt": 164,
    "tzn": -5,
    "dst": "A",
    "tzndb": "America/Toronto"
  }
  {
    "id": 141,
    "name": "Thompson",
    "city": "Thompson",
    "country": "Canada",
    "iata": "YTH",
    "icao": "CYTH",
    "lat": 55.801111,
    "lon": -97.864166,
    "alt": 729,
    "tzn": -6,
    "dst": "A",
    "tzndb": "America/Winnipeg"
  }
  {
    "id": 142,
    "name": "Trenton",
    "city": "Trenton",
    "country": "Canada",
    "iata": "YTR",
    "icao": "CYTR",
    "lat": 44.118889,
    "lon": -77.528056,
    "alt": 283,
    "tzn": -5,
    "dst": "A",
    "tzndb": "America/Toronto"
  }
  {
    "id": 143,
    "name": "Timmins",
    "city": "Timmins",
    "country": "Canada",
    "iata": "YTS",
    "icao": "CYTS",
    "lat": 48.569721,
    "lon": -81.376667,
    "alt": 967,
    "tzn": -5,
    "dst": "A",
    "tzndb": "America/Toronto"
  }
  {
    "id": 144,
    "name": "City Centre",
    "city": "Toronto",
    "country": "Canada",
    "iata": "YTZ",
    "icao": "CYTZ",
    "lat": 43.627499,
    "lon": -79.396167,
    "alt": 251,
    "tzn": -5,
    "dst": "A",
    "tzndb": "America/Toronto"
  }
  {
    "id": 145,
    "name": "Tuktoyaktuk",
    "city": "Tuktoyaktuk",
    "country": "Canada",
    "iata": "YUB",
    "icao": "CYUB",
    "lat": 69.433334,
    "lon": -133.026389,
    "alt": 15,
    "tzn": -7,
    "dst": "A",
    "tzndb": "America/Edmonton"
  }
  {
    "id": 146,
    "name": "Pierre Elliott Trudeau Intl",
    "city": "Montreal",
    "country": "Canada",
    "iata": "YUL",
    "icao": "CYUL",
    "lat": 45.470556,
    "lon": -73.740833,
    "alt": 118,
    "tzn": -5,
    "dst": "A",
    "tzndb": "America/Toronto"
  }
  {
    "id": 147,
    "name": "Repulse Bay",
    "city": "Repulse Bay",
    "country": "Canada",
    "iata": "YUT",
    "icao": "CYUT",
    "lat": 66.521389,
    "lon": -86.224722,
    "alt": 80,
    "tzn": -6,
    "dst": "A",
    "tzndb": "America/Winnipeg"
  }
  {
    "id": 148,
    "name": "Hall Beach",
    "city": "Hall Beach",
    "country": "Canada",
    "iata": "YUX",
    "icao": "CYUX",
    "lat": 68.776111,
    "lon": -81.243611,
    "alt": 27,
    "tzn": -5,
    "dst": "A",
    "tzndb": "America/Toronto"
  }
  {
    "id": 149,
    "name": "Rouyn Noranda",
    "city": "Rouyn",
    "country": "Canada",
    "iata": "YUY",
    "icao": "CYUY",
    "lat": 48.206111,
    "lon": -78.835556,
    "alt": 988,
    "tzn": -5,
    "dst": "A",
    "tzndb": "America/Toronto"
  }
  {
    "id": 150,
    "name": "La Ronge",
    "city": "La Ronge",
    "country": "Canada",
    "iata": "YVC",
    "icao": "CYVC",
    "lat": 55.15139,
    "lon": -105.261944,
    "alt": 1242,
    "tzn": -6,
    "dst": "N",
    "tzndb": "America/Regina"
  }
  {
    "id": 151,
    "name": "Vermilion",
    "city": "Vermillion",
    "country": "Canada",
    "iata": "YVG",
    "icao": "CYVG",
    "lat": 53.355833,
    "lon": -110.82389,
    "alt": 2025,
    "tzn": -7,
    "dst": "A",
    "tzndb": "America/Edmonton"
  }
  {
    "id": 152,
    "name": "Qikiqtarjuaq",
    "city": "Broughton Island",
    "country": "Canada",
    "iata": "YVM",
    "icao": "CYVM",
    "lat": 67.545833,
    "lon": -64.031389,
    "alt": 21,
    "tzn": -5,
    "dst": "A",
    "tzndb": "America/Toronto"
  }
  {
    "id": 153,
    "name": "Val D Or",
    "city": "Val D'or",
    "country": "Canada",
    "iata": "YVO",
    "icao": "CYVO",
    "lat": 48.053333,
    "lon": -77.782778,
    "alt": 1107,
    "tzn": -5,
    "dst": "A",
    "tzndb": "America/Toronto"
  }
  {
    "id": 154,
    "name": "Kuujjuaq",
    "city": "Quujjuaq",
    "country": "Canada",
    "iata": "YVP",
    "icao": "CYVP",
    "lat": 58.096111,
    "lon": -68.426944,
    "alt": 129,
    "tzn": -5,
    "dst": "A",
    "tzndb": "America/Toronto"
  }
  {
    "id": 155,
    "name": "Norman Wells",
    "city": "Norman Wells",
    "country": "Canada",
    "iata": "YVQ",
    "icao": "CYVQ",
    "lat": 65.281617,
    "lon": -126.798219,
    "alt": 238,
    "tzn": -7,
    "dst": "A",
    "tzndb": "America/Edmonton"
  }
  {
    "id": 156,
    "name": "Vancouver Intl",
    "city": "Vancouver",
    "country": "Canada",
    "iata": "YVR",
    "icao": "CYVR",
    "lat": 49.193889,
    "lon": -123.184444,
    "alt": 14,
    "tzn": -8,
    "dst": "A",
    "tzndb": "America/Vancouver"
  }
  {
    "id": 157,
    "name": "Buffalo Narrows",
    "city": "Buffalo Narrows",
    "country": "Canada",
    "iata": "YVT",
    "icao": "CYVT",
    "lat": 55.841944,
    "lon": -108.4175,
    "alt": 1444,
    "tzn": -6,
    "dst": "N",
    "tzndb": "America/Regina"
  }
  {
    "id": 158,
    "name": "Wiarton",
    "city": "Wiarton",
    "country": "Canada",
    "iata": "YVV",
    "icao": "CYVV",
    "lat": 44.745834,
    "lon": -81.107222,
    "alt": 729,
    "tzn": -5,
    "dst": "A",
    "tzndb": "America/Toronto"
  }
  {
    "id": 159,
    "name": "Petawawa",
    "city": "Petawawa",
    "country": "Canada",
    "iata": "YWA",
    "icao": "CYWA",
    "lat": 45.952221,
    "lon": -77.319168,
    "alt": 427,
    "tzn": -5,
    "dst": "A",
    "tzndb": "America/Toronto"
  }
  {
    "id": 160,
    "name": "Winnipeg Intl",
    "city": "Winnipeg",
    "country": "Canada",
    "iata": "YWG",
    "icao": "CYWG",
    "lat": 49.910036,
    "lon": -97.239886,
    "alt": 783,
    "tzn": -6,
    "dst": "A",
    "tzndb": "America/Winnipeg"
  }
  {
    "id": 161,
    "name": "Wabush",
    "city": "Wabush",
    "country": "Canada",
    "iata": "YWK",
    "icao": "CYWK",
    "lat": 52.921944,
    "lon": -66.864444,
    "alt": 1808,
    "tzn": -4,
    "dst": "A",
    "tzndb": "America/Halifax"
  }
  {
    "id": 162,
    "name": "Williams Lake",
    "city": "Williams Lake",
    "country": "Canada",
    "iata": "YWL",
    "icao": "CYWL",
    "lat": 52.183056,
    "lon": -122.054167,
    "alt": 3085,
    "tzn": -8,
    "dst": "A",
    "tzndb": "America/Vancouver"
  }
  {
    "id": 163,
    "name": "Wrigley",
    "city": "Wrigley",
    "country": "Canada",
    "iata": "YWY",
    "icao": "CYWY",
    "lat": 63.209444,
    "lon": -123.436667,
    "alt": 489,
    "tzn": -7,
    "dst": "A",
    "tzndb": "America/Edmonton"
  }
  {
    "id": 164,
    "name": "Canadian Rockies Intl",
    "city": "Cranbrook",
    "country": "Canada",
    "iata": "YXC",
    "icao": "CYXC",
    "lat": 49.612222,
    "lon": -115.781944,
    "alt": 3084,
    "tzn": -7,
    "dst": "A",
    "tzndb": "America/Edmonton"
  }
  {
    "id": 165,
    "name": "Edmonton City Centre",
    "city": "Edmonton",
    "country": "Canada",
    "iata": "YXD",
    "icao": "CYXD",
    "lat": 53.5725,
    "lon": -113.520556,
    "alt": 2200,
    "tzn": -7,
    "dst": "A",
    "tzndb": "America/Edmonton"
  }
  {
    "id": 166,
    "name": "Saskatoon J G Diefenbaker Intl",
    "city": "Saskatoon",
    "country": "Canada",
    "iata": "YXE",
    "icao": "CYXE",
    "lat": 52.170834,
    "lon": -106.699722,
    "alt": 1653,
    "tzn": -6,
    "dst": "N",
    "tzndb": "America/Regina"
  }
  {
    "id": 167,
    "name": "Medicine Hat",
    "city": "Medicine Hat",
    "country": "Canada",
    "iata": "YXH",
    "icao": "CYXH",
    "lat": 50.01889,
    "lon": -110.720833,
    "alt": 2352,
    "tzn": -7,
    "dst": "A",
    "tzndb": "America/Edmonton"
  }
  {
    "id": 168,
    "name": "Fort St John",
    "city": "Fort Saint John",
    "country": "Canada",
    "iata": "YXJ",
    "icao": "CYXJ",
    "lat": 56.238056,
    "lon": -120.740278,
    "alt": 2280,
    "tzn": -7,
    "dst": "A",
    "tzndb": "America/Dawson_Creek"
  }
  {
    "id": 169,
    "name": "Sioux Lookout",
    "city": "Sioux Lookout",
    "country": "Canada",
    "iata": "YXL",
    "icao": "CYXL",
    "lat": 50.113889,
    "lon": -91.905278,
    "alt": 1258,
    "tzn": -6,
    "dst": "A",
    "tzndb": "America/Winnipeg"
  }
  {
    "id": 170,
    "name": "Pangnirtung",
    "city": "Pangnirtung",
    "country": "Canada",
    "iata": "YXP",
    "icao": "CYXP",
    "lat": 66.145,
    "lon": -65.713611,
    "alt": 75,
    "tzn": -5,
    "dst": "A",
    "tzndb": "America/Toronto"
  }
  {
    "id": 171,
    "name": "Timiskaming Rgnl",
    "city": "Earlton",
    "country": "Canada",
    "iata": "YXR",
    "icao": "CYXR",
    "lat": 47.695,
    "lon": -79.848889,
    "alt": 798,
    "tzn": -5,
    "dst": "A",
    "tzndb": "America/Toronto"
  }
  {
    "id": 172,
    "name": "Prince George",
    "city": "Prince George",
    "country": "Canada",
    "iata": "YXS",
    "icao": "CYXS",
    "lat": 53.889444,
    "lon": -122.678889,
    "alt": 2267,
    "tzn": -8,
    "dst": "A",
    "tzndb": "America/Vancouver"
  }
  {
    "id": 173,
    "name": "Terrace",
    "city": "Terrace",
    "country": "Canada",
    "iata": "YXT",
    "icao": "CYXT",
    "lat": 54.468508,
    "lon": -128.576219,
    "alt": 713,
    "tzn": -8,
    "dst": "A",
    "tzndb": "America/Vancouver"
  }
  {
    "id": 174,
    "name": "London",
    "city": "London",
    "country": "Canada",
    "iata": "YXU",
    "icao": "CYXU",
    "lat": 43.033056,
    "lon": -81.151111,
    "alt": 912,
    "tzn": -5,
    "dst": "A",
    "tzndb": "America/Toronto"
  }
  {
    "id": 175,
    "name": "Abbotsford",
    "city": "Abbotsford",
    "country": "Canada",
    "iata": "YXX",
    "icao": "CYXX",
    "lat": 49.025278,
    "lon": -122.360556,
    "alt": 195,
    "tzn": -8,
    "dst": "A",
    "tzndb": "America/Vancouver"
  }
  {
    "id": 176,
    "name": "Whitehorse Intl",
    "city": "Whitehorse",
    "country": "Canada",
    "iata": "YXY",
    "icao": "CYXY",
    "lat": 60.709553,
    "lon": -135.067269,
    "alt": 2317,
    "tzn": -8,
    "dst": "A",
    "tzndb": "America/Vancouver"
  }
  {
    "id": 177,
    "name": "North Bay",
    "city": "North Bay",
    "country": "Canada",
    "iata": "YYB",
    "icao": "CYYB",
    "lat": 46.363611,
    "lon": -79.422778,
    "alt": 1215,
    "tzn": -5,
    "dst": "A",
    "tzndb": "America/Toronto"
  }
  {
    "id": 178,
    "name": "Calgary Intl",
    "city": "Calgary",
    "country": "Canada",
    "iata": "YYC",
    "icao": "CYYC",
    "lat": 51.113888,
    "lon": -114.020278,
    "alt": 3557,
    "tzn": -7,
    "dst": "A",
    "tzndb": "America/Edmonton"
  }
  {
    "id": 179,
    "name": "Smithers",
    "city": "Smithers",
    "country": "Canada",
    "iata": "YYD",
    "icao": "CYYD",
    "lat": 54.824722,
    "lon": -127.182778,
    "alt": 1712,
    "tzn": -8,
    "dst": "A",
    "tzndb": "America/Vancouver"
  }
  {
    "id": 180,
    "name": "Fort Nelson",
    "city": "Fort Nelson",
    "country": "Canada",
    "iata": "YYE",
    "icao": "CYYE",
    "lat": 58.836389,
    "lon": -122.596944,
    "alt": 1253,
    "tzn": -8,
    "dst": "A",
    "tzndb": "America/Vancouver"
  }
  {
    "id": 181,
    "name": "Penticton",
    "city": "Penticton",
    "country": "Canada",
    "iata": "YYF",
    "icao": "CYYF",
    "lat": 49.463056,
    "lon": -119.602222,
    "alt": 1129,
    "tzn": -8,
    "dst": "A",
    "tzndb": "America/Vancouver"
  }
  {
    "id": 182,
    "name": "Charlottetown",
    "city": "Charlottetown",
    "country": "Canada",
    "iata": "YYG",
    "icao": "CYYG",
    "lat": 46.290001,
    "lon": -63.121111,
    "alt": 160,
    "tzn": -4,
    "dst": "A",
    "tzndb": "America/Halifax"
  }
  {
    "id": 183,
    "name": "Taloyoak",
    "city": "Spence Bay",
    "country": "Canada",
    "iata": "YYH",
    "icao": "CYYH",
    "lat": 69.546667,
    "lon": -93.576667,
    "alt": 92,
    "tzn": -7,
    "dst": "A",
    "tzndb": "America/Edmonton"
  }
  {
    "id": 184,
    "name": "Victoria Intl",
    "city": "Victoria",
    "country": "Canada",
    "iata": "YYJ",
    "icao": "CYYJ",
    "lat": 48.646944,
    "lon": -123.425833,
    "alt": 63,
    "tzn": -8,
    "dst": "A",
    "tzndb": "America/Vancouver"
  }
  {
    "id": 185,
    "name": "Lynn Lake",
    "city": "Lynn Lake",
    "country": "Canada",
    "iata": "YYL",
    "icao": "CYYL",
    "lat": 56.863888,
    "lon": -101.07611,
    "alt": 1170,
    "tzn": -6,
    "dst": "A",
    "tzndb": "America/Winnipeg"
  }
  {
    "id": 186,
    "name": "Swift Current",
    "city": "Swift Current",
    "country": "Canada",
    "iata": "YYN",
    "icao": "CYYN",
    "lat": 50.291944,
    "lon": -107.690556,
    "alt": 2680,
    "tzn": -6,
    "dst": "N",
    "tzndb": "America/Regina"
  }
  {
    "id": 187,
    "name": "Churchill",
    "city": "Churchill",
    "country": "Canada",
    "iata": "YYQ",
    "icao": "CYYQ",
    "lat": 58.739167,
    "lon": -94.065,
    "alt": 94,
    "tzn": -6,
    "dst": "A",
    "tzndb": "America/Winnipeg"
  }
  {
    "id": 188,
    "name": "Goose Bay",
    "city": "Goose Bay",
    "country": "Canada",
    "iata": "YYR",
    "icao": "CYYR",
    "lat": 53.319168,
    "lon": -60.425833,
    "alt": 160,
    "tzn": -4,
    "dst": "A",
    "tzndb": "America/Halifax"
  }
  {
    "id": 189,
    "name": "St Johns Intl",
    "city": "St. John's",
    "country": "Canada",
    "iata": "YYT",
    "icao": "CYYT",
    "lat": 47.61861,
    "lon": -52.751945,
    "alt": 461,
    "tzn": -3.5,
    "dst": "A",
    "tzndb": "America/St_Johns"
  }
  {
    "id": 190,
    "name": "Kapuskasing",
    "city": "Kapuskasing",
    "country": "Canada",
    "iata": "YYU",
    "icao": "CYYU",
    "lat": 49.413889,
    "lon": -82.4675,
    "alt": 743,
    "tzn": -5,
    "dst": "A",
    "tzndb": "America/Toronto"
  }
  {
    "id": 191,
    "name": "Armstrong",
    "city": "Armstrong",
    "country": "Canada",
    "iata": "YYW",
    "icao": "CYYW",
    "lat": 50.290279,
    "lon": -88.909721,
    "alt": 1058,
    "tzn": -5,
    "dst": "A",
    "tzndb": "America/Toronto"
  }
  {
    "id": 192,
    "name": "Mont Joli",
    "city": "Mont Joli",
    "country": "Canada",
    "iata": "YYY",
    "icao": "CYYY",
    "lat": 48.608612,
    "lon": -68.208056,
    "alt": 172,
    "tzn": -5,
    "dst": "A",
    "tzndb": "America/Toronto"
  }
  {
    "id": 193,
    "name": "Lester B Pearson Intl",
    "city": "Toronto",
    "country": "Canada",
    "iata": "YYZ",
    "icao": "CYYZ",
    "lat": 43.677223,
    "lon": -79.630556,
    "alt": 569,
    "tzn": -5,
    "dst": "A",
    "tzndb": "America/Toronto"
  }
  {
    "id": 194,
    "name": "Downsview",
    "city": "Toronto",
    "country": "Canada",
    "iata": "YZD",
    "icao": "CYZD",
    "lat": 43.7425,
    "lon": -79.465556,
    "alt": 652,
    "tzn": -5,
    "dst": "A",
    "tzndb": "America/Toronto"
  }
  {
    "id": 195,
    "name": "Gore Bay Manitoulin",
    "city": "Gore Bay",
    "country": "Canada",
    "iata": "YZE",
    "icao": "CYZE",
    "lat": 45.885277,
    "lon": -82.567778,
    "alt": 635,
    "tzn": -5,
    "dst": "A",
    "tzndb": "America/Toronto"
  }
  {
    "id": 196,
    "name": "Yellowknife",
    "city": "Yellowknife",
    "country": "Canada",
    "iata": "YZF",
    "icao": "CYZF",
    "lat": 62.462778,
    "lon": -114.440278,
    "alt": 675,
    "tzn": -7,
    "dst": "A",
    "tzndb": "America/Edmonton"
  }
  {
    "id": 197,
    "name": "Slave Lake",
    "city": "Slave Lake",
    "country": "Canada",
    "iata": "YZH",
    "icao": "CYZH",
    "lat": 55.293056,
    "lon": -114.777222,
    "alt": 1912,
    "tzn": -7,
    "dst": "A",
    "tzndb": "America/Edmonton"
  }
  {
    "id": 198,
    "name": "Sandspit",
    "city": "Sandspit",
    "country": "Canada",
    "iata": "YZP",
    "icao": "CYZP",
    "lat": 53.254333,
    "lon": -131.813833,
    "alt": 21,
    "tzn": -8,
    "dst": "A",
    "tzndb": "America/Vancouver"
  }
  {
    "id": 199,
    "name": "Chris Hadfield",
    "city": "Sarnia",
    "country": "Canada",
    "iata": "YZR",
    "icao": "CYZR",
    "lat": 42.999444,
    "lon": -82.308889,
    "alt": 594,
    "tzn": -5,
    "dst": "A",
    "tzndb": "America/Toronto"
  }
  {
    "id": 200,
    "name": "Port Hardy",
    "city": "Port Hardy",
    "country": "Canada",
    "iata": "YZT",
    "icao": "CYZT",
    "lat": 50.680556,
    "lon": -127.366667,
    "alt": 71,
    "tzn": -8,
    "dst": "A",
    "tzndb": "America/Vancouver"
  }
  {
    "id": 201,
    "name": "Whitecourt",
    "city": "Whitecourt",
    "country": "Canada",
    "iata": "YZU",
    "icao": "CYZU",
    "lat": 54.14389,
    "lon": -115.786667,
    "alt": 2567,
    "tzn": -7,
    "dst": "A",
    "tzndb": "America/Edmonton"
  }
  {
    "id": 202,
    "name": "Sept Iles",
    "city": "Sept-iles",
    "country": "Canada",
    "iata": "YZV",
    "icao": "CYZV",
    "lat": 50.223333,
    "lon": -66.265556,
    "alt": 180,
    "tzn": -5,
    "dst": "A",
    "tzndb": "America/Toronto"
  }
  {
    "id": 203,
    "name": "Teslin",
    "city": "Teslin",
    "country": "Canada",
    "iata": "YZW",
    "icao": "CYZW",
    "lat": 60.172779,
    "lon": -132.742778,
    "alt": 2313,
    "tzn": -8,
    "dst": "A",
    "tzndb": "America/Vancouver"
  }
  {
    "id": 204,
    "name": "Greenwood",
    "city": "Greenwood",
    "country": "Canada",
    "iata": "YZX",
    "icao": "CYZX",
    "lat": 44.984444,
    "lon": -64.916944,
    "alt": 92,
    "tzn": -4,
    "dst": "A",
    "tzndb": "America/Halifax"
  }
  {
    "id": 205,
    "name": "Faro",
    "city": "Faro",
    "country": "Canada",
    "iata": "ZFA",
    "icao": "CZFA",
    "lat": 62.2075,
    "lon": -133.375833,
    "alt": 2351,
    "tzn": -8,
    "dst": "A",
    "tzndb": "America/Vancouver"
  }
  {
    "id": 206,
    "name": "Fort Mcpherson",
    "city": "Fort Mcpherson",
    "country": "Canada",
    "iata": "ZFM",
    "icao": "CZFM",
    "lat": 67.4075,
    "lon": -134.860556,
    "alt": 116,
    "tzn": -7,
    "dst": "A",
    "tzndb": "America/Edmonton"
  }
  {
    "id": 207,
    "name": "Blida",
    "city": "Blida",
    "country": "Algeria",
    "iata": "",
    "icao": "DAAB",
    "lat": 36.503613,
    "lon": 2.814167,
    "alt": 535,
    "tzn": 1,
    "dst": "N",
    "tzndb": "Africa/Algiers"
  }
  {
    "id": 208,
    "name": "Bou Saada",
    "city": "Bou Saada",
    "country": "Algeria",
    "iata": "",
    "icao": "DAAD",
    "lat": 35.3325,
    "lon": 4.206389,
    "alt": 1506,
    "tzn": 1,
    "dst": "N",
    "tzndb": "Africa/Algiers"
  }
  {
    "id": 209,
    "name": "Soummam",
    "city": "Bejaja",
    "country": "Algeria",
    "iata": "BJA",
    "icao": "DAAE",
    "lat": 36.711997,
    "lon": 5.069922,
    "alt": 20,
    "tzn": 1,
    "dst": "N",
    "tzndb": "Africa/Algiers"
  }
  {
    "id": 210,
    "name": "Houari Boumediene",
    "city": "Algier",
    "country": "Algeria",
    "iata": "ALG",
    "icao": "DAAG",
    "lat": 36.691014,
    "lon": 3.215408,
    "alt": 82,
    "tzn": 1,
    "dst": "N",
    "tzndb": "Africa/Algiers"
  }
  {
    "id": 211,
    "name": "Tiska",
    "city": "Djanet",
    "country": "Algeria",
    "iata": "DJG",
    "icao": "DAAJ",
    "lat": 24.292767,
    "lon": 9.452444,
    "alt": 3176,
    "tzn": 1,
    "dst": "N",
    "tzndb": "Africa/Algiers"
  }
  {
    "id": 212,
    "name": "Boufarik",
    "city": "Boufarik",
    "country": "Algeria",
    "iata": "QFD",
    "icao": "DAAK",
    "lat": 36.545834,
    "lon": 2.876111,
    "alt": 335,
    "tzn": 1,
    "dst": "N",
    "tzndb": "Africa/Algiers"
  }
  {
    "id": 213,
    "name": "Reggane",
    "city": "Reggan",
    "country": "Algeria",
    "iata": "",
    "icao": "DAAN",
    "lat": 26.710103,
    "lon": 0.285647,
    "alt": 955,
    "tzn": 1,
    "dst": "N",
    "tzndb": "Africa/Algiers"
  }
  {
    "id": 214,
    "name": "Illizi Takhamalt",
    "city": "Illizi",
    "country": "Algeria",
    "iata": "VVZ",
    "icao": "DAAP",
    "lat": 26.723536,
    "lon": 8.622653,
    "alt": 1778,
    "tzn": 1,
    "dst": "N",
    "tzndb": "Africa/Algiers"
  }
  {
    "id": 215,
    "name": "Ain Oussera",
    "city": "Ain Oussera",
    "country": "Algeria",
    "iata": "",
    "icao": "DAAQ",
    "lat": 35.525414,
    "lon": 2.878714,
    "alt": 2132,
    "tzn": 1,
    "dst": "N",
    "tzndb": "Africa/Algiers"
  }
  {
    "id": 216,
    "name": "Tamanrasset",
    "city": "Tamanrasset",
    "country": "Algeria",
    "iata": "TMR",
    "icao": "DAAT",
    "lat": 22.811461,
    "lon": 5.451075,
    "alt": 4518,
    "tzn": 1,
    "dst": "N",
    "tzndb": "Africa/Algiers"
  }
  {
    "id": 217,
    "name": "Jijel",
    "city": "Jijel",
    "country": "Algeria",
    "iata": "GJL",
    "icao": "DAAV",
    "lat": 36.795136,
    "lon": 5.873608,
    "alt": 36,
    "tzn": 1,
    "dst": "N",
    "tzndb": "Africa/Algiers"
  }
  {
    "id": 218,
    "name": "Mecheria",
    "city": "Mecheria",
    "country": "Algeria",
    "iata": "",
    "icao": "DAAY",
    "lat": 33.535853,
    "lon": -0.242353,
    "alt": 3855,
    "tzn": 1,
    "dst": "N",
    "tzndb": "Africa/Algiers"
  }
  {
    "id": 219,
    "name": "Relizane",
    "city": "Relizane",
    "country": "Algeria",
    "iata": "",
    "icao": "DAAZ",
    "lat": 35.752239,
    "lon": 0.626272,
    "alt": 282,
    "tzn": 1,
    "dst": "N",
    "tzndb": "Africa/Algiers"
  }
  {
    "id": 220,
    "name": "Annaba",
    "city": "Annaba",
    "country": "Algeria",
    "iata": "AAE",
    "icao": "DABB",
    "lat": 36.822225,
    "lon": 7.809167,
    "alt": 16,
    "tzn": 1,
    "dst": "N",
    "tzndb": "Africa/Algiers"
  }
  {
    "id": 221,
    "name": "Mohamed Boudiaf Intl",
    "city": "Constantine",
    "country": "Algeria",
    "iata": "CZL",
    "icao": "DABC",
    "lat": 36.276028,
    "lon": 6.620386,
    "alt": 2265,
    "tzn": 1,
    "dst": "N",
    "tzndb": "Africa/Algiers"
  }
  {
    "id": 222,
    "name": "Cheikh Larbi Tebessi",
    "city": "Tebessa",
    "country": "Algeria",
    "iata": "TEE",
    "icao": "DABS",
    "lat": 35.431611,
    "lon": 8.120717,
    "alt": 2661,
    "tzn": 1,
    "dst": "N",
    "tzndb": "Africa/Algiers"
  }
  {
    "id": 224,
    "name": "Hassi R Mel",
    "city": "Tilrempt",
    "country": "Algeria",
    "iata": "HRM",
    "icao": "DAFH",
    "lat": 32.930431,
    "lon": 3.311542,
    "alt": 2540,
    "tzn": 1,
    "dst": "N",
    "tzndb": "Africa/Algiers"
  }
  {
    "id": 225,
    "name": "Bou Chekif",
    "city": "Tiaret",
    "country": "Algeria",
    "iata": "TID",
    "icao": "DAOB",
    "lat": 35.341136,
    "lon": 1.463147,
    "alt": 3245,
    "tzn": 1,
    "dst": "N",
    "tzndb": "Africa/Algiers"
  }
  {
    "id": 226,
    "name": "Bou Sfer",
    "city": "Bou Sfer",
    "country": "Algeria",
    "iata": "",
    "icao": "DAOE",
    "lat": 35.735389,
    "lon": -0.805389,
    "alt": 187,
    "tzn": 1,
    "dst": "N",
    "tzndb": "Africa/Algiers"
  }
  {
    "id": 227,
    "name": "Tindouf",
    "city": "Tindouf",
    "country": "Algeria",
    "iata": "TIN",
    "icao": "DAOF",
    "lat": 27.700372,
    "lon": -8.167103,
    "alt": 1453,
    "tzn": 1,
    "dst": "N",
    "tzndb": "Africa/Algiers"
  }
  {
    "id": 228,
    "name": "Ech Cheliff",
    "city": "Ech-cheliff",
    "country": "Algeria",
    "iata": "QAS",
    "icao": "DAOI",
    "lat": 36.212658,
    "lon": 1.331775,
    "alt": 463,
    "tzn": 1,
    "dst": "N",
    "tzndb": "Africa/Algiers"
  }
  {
    "id": 229,
    "name": "Tafaraoui",
    "city": "Oran",
    "country": "Algeria",
    "iata": "TAF",
    "icao": "DAOL",
    "lat": 35.542444,
    "lon": -0.532278,
    "alt": 367,
    "tzn": 1,
    "dst": "N",
    "tzndb": "Africa/Algiers"
  }
  {
    "id": 230,
    "name": "Zenata",
    "city": "Tlemcen",
    "country": "Algeria",
    "iata": "TLM",
    "icao": "DAON",
    "lat": 35.016667,
    "lon": -1.45,
    "alt": 814,
    "tzn": 1,
    "dst": "N",
    "tzndb": "Africa/Algiers"
  }
  {
    "id": 231,
    "name": "Es Senia",
    "city": "Oran",
    "country": "Algeria",
    "iata": "ORN",
    "icao": "DAOO",
    "lat": 35.623858,
    "lon": -0.621183,
    "alt": 295,
    "tzn": 1,
    "dst": "N",
    "tzndb": "Africa/Algiers"
  }
  {
    "id": 232,
    "name": "Sidi Bel Abbes",
    "city": "Sidi Bel Abbes",
    "country": "Algeria",
    "iata": "",
    "icao": "DAOS",
    "lat": 35.171775,
    "lon": -0.593275,
    "alt": 1614,
    "tzn": 1,
    "dst": "N",
    "tzndb": "Africa/Algiers"
  }
  {
    "id": 233,
    "name": "Ghriss",
    "city": "Ghriss",
    "country": "Algeria",
    "iata": "MUW",
    "icao": "DAOV",
    "lat": 35.207725,
    "lon": 0.147142,
    "alt": 1686,
    "tzn": 1,
    "dst": "N",
    "tzndb": "Africa/Algiers"
  }
  {
    "id": 234,
    "name": "Touat Cheikh Sidi Mohamed Belkebir",
    "city": "Adrar",
    "country": "Algeria",
    "iata": "AZR",
    "icao": "DAUA",
    "lat": 27.837589,
    "lon": -0.186414,
    "alt": 919,
    "tzn": 1,
    "dst": "N",
    "tzndb": "Africa/Algiers"
  }
  {
    "id": 235,
    "name": "Biskra",
    "city": "Biskra",
    "country": "Algeria",
    "iata": "BSK",
    "icao": "DAUB",
    "lat": 34.793289,
    "lon": 5.738231,
    "alt": 289,
    "tzn": 1,
    "dst": "N",
    "tzndb": "Africa/Algiers"
  }
  {
    "id": 236,
    "name": "El Golea",
    "city": "El Golea",
    "country": "Algeria",
    "iata": "ELG",
    "icao": "DAUE",
    "lat": 30.571294,
    "lon": 2.859586,
    "alt": 1306,
    "tzn": 1,
    "dst": "N",
    "tzndb": "Africa/Algiers"
  }
  {
    "id": 237,
    "name": "Noumerat",
    "city": "Ghardaia",
    "country": "Algeria",
    "iata": "GHA",
    "icao": "DAUG",
    "lat": 32.384106,
    "lon": 3.794114,
    "alt": 1512,
    "tzn": 1,
    "dst": "N",
    "tzndb": "Africa/Algiers"
  }
  {
    "id": 238,
    "name": "Oued Irara",
    "city": "Hassi Messaoud",
    "country": "Algeria",
    "iata": "HME",
    "icao": "DAUH",
    "lat": 31.672972,
    "lon": 6.140444,
    "alt": 463,
    "tzn": 1,
    "dst": "N",
    "tzndb": "Africa/Algiers"
  }
  {
    "id": 239,
    "name": "In Salah",
    "city": "In Salah",
    "country": "Algeria",
    "iata": "INZ",
    "icao": "DAUI",
    "lat": 27.251022,
    "lon": 2.512017,
    "alt": 896,
    "tzn": 1,
    "dst": "N",
    "tzndb": "Africa/Algiers"
  }
  {
    "id": 240,
    "name": "Sidi Mahdi",
    "city": "Touggourt",
    "country": "Algeria",
    "iata": "TGR",
    "icao": "DAUK",
    "lat": 33.067803,
    "lon": 6.088672,
    "alt": 279,
    "tzn": 1,
    "dst": "N",
    "tzndb": "Africa/Algiers"
  }
  {
    "id": 241,
    "name": "Laghouat",
    "city": "Laghouat",
    "country": "Algeria",
    "iata": "LOO",
    "icao": "DAUL",
    "lat": 33.764383,
    "lon": 2.928344,
    "alt": 2510,
    "tzn": 1,
    "dst": "N",
    "tzndb": "Africa/Algiers"
  }
  {
    "id": 242,
    "name": "Timimoun",
    "city": "Timimoun",
    "country": "Algeria",
    "iata": "TMX",
    "icao": "DAUT",
    "lat": 29.237119,
    "lon": 0.276033,
    "alt": 1027,
    "tzn": 1,
    "dst": "N",
    "tzndb": "Africa/Algiers"
  }
  {
    "id": 243,
    "name": "Ouargla",
    "city": "Ouargla",
    "country": "Algeria",
    "iata": "OGX",
    "icao": "DAUU",
    "lat": 31.917223,
    "lon": 5.412778,
    "alt": 492,
    "tzn": 1,
    "dst": "N",
    "tzndb": "Africa/Algiers"
  }
  {
    "id": 244,
    "name": "In Amenas",
    "city": "Zarzaitine",
    "country": "Algeria",
    "iata": "IAM",
    "icao": "DAUZ",
    "lat": 28.05155,
    "lon": 9.642911,
    "alt": 1847,
    "tzn": 1,
    "dst": "N",
    "tzndb": "Africa/Algiers"
  }
  {
    "id": 245,
    "name": "Cadjehoun",
    "city": "Cotonou",
    "country": "Benin",
    "iata": "COO",
    "icao": "DBBB",
    "lat": 6.357228,
    "lon": 2.384353,
    "alt": 19,
    "tzn": 1,
    "dst": "N",
    "tzndb": "Africa/Porto-Novo"
  }
  {
    "id": 246,
    "name": "Ouagadougou",
    "city": "Ouagadougou",
    "country": "Burkina Faso",
    "iata": "OUA",
    "icao": "DFFD",
    "lat": 12.353194,
    "lon": -1.512417,
    "alt": 1037,
    "tzn": 0,
    "dst": "N",
    "tzndb": "Africa/Ouagadougou"
  }
  {
    "id": 247,
    "name": "Bobo Dioulasso",
    "city": "Bobo-dioulasso",
    "country": "Burkina Faso",
    "iata": "BOY",
    "icao": "DFOO",
    "lat": 11.160056,
    "lon": -4.330969,
    "alt": 1511,
    "tzn": 0,
    "dst": "N",
    "tzndb": "Africa/Ouagadougou"
  }
  {
    "id": 248,
    "name": "Kotoka Intl",
    "city": "Accra",
    "country": "Ghana",
    "iata": "ACC",
    "icao": "DGAA",
    "lat": 5.605186,
    "lon": -0.166786,
    "alt": 205,
    "tzn": 0,
    "dst": "N",
    "tzndb": "Africa/Accra"
  }
  {
    "id": 249,
    "name": "Tamale",
    "city": "Tamale",
    "country": "Ghana",
    "iata": "TML",
    "icao": "DGLE",
    "lat": 9.557192,
    "lon": -0.863214,
    "alt": 553,
    "tzn": 0,
    "dst": "N",
    "tzndb": "Africa/Accra"
  }
  {
    "id": 250,
    "name": "Wa",
    "city": "Wa",
    "country": "Ghana",
    "iata": "",
    "icao": "DGLW",
    "lat": 10.082664,
    "lon": -2.507694,
    "alt": 1060,
    "tzn": 0,
    "dst": "N",
    "tzndb": "Africa/Accra"
  }
  {
    "id": 251,
    "name": "Sunyani",
    "city": "Sunyani",
    "country": "Ghana",
    "iata": "NYI",
    "icao": "DGSN",
    "lat": 7.361828,
    "lon": -2.328756,
    "alt": 1014,
    "tzn": 0,
    "dst": "N",
    "tzndb": "Africa/Accra"
  }
  {
    "id": 252,
    "name": "Takoradi",
    "city": "Takoradi",
    "country": "Ghana",
    "iata": "TKD",
    "icao": "DGTK",
    "lat": 4.896056,
    "lon": -1.774756,
    "alt": 21,
    "tzn": 0,
    "dst": "N",
    "tzndb": "Africa/Accra"
  }
  {
    "id": 253,
    "name": "Abidjan Felix Houphouet Boigny Intl",
    "city": "Abidjan",
    "country": "Cote d'Ivoire",
    "iata": "ABJ",
    "icao": "DIAP",
    "lat": 5.261386,
    "lon": -3.926294,
    "alt": 21,
    "tzn": 0,
    "dst": "N",
    "tzndb": "Africa/Abidjan"
  }
  {
    "id": 254,
    "name": "Bouake",
    "city": "Bouake",
    "country": "Cote d'Ivoire",
    "iata": "BYK",
    "icao": "DIBK",
    "lat": 7.7388,
    "lon": -5.073667,
    "alt": 1230,
    "tzn": 0,
    "dst": "N",
    "tzndb": "Africa/Abidjan"
  }
  {
    "id": 255,
    "name": "Daloa",
    "city": "Daloa",
    "country": "Cote d'Ivoire",
    "iata": "DJO",
    "icao": "DIDL",
    "lat": 6.792808,
    "lon": -6.473189,
    "alt": 823,
    "tzn": 0,
    "dst": "N",
    "tzndb": "Africa/Abidjan"
  }
  {
    "id": 256,
    "name": "Korhogo",
    "city": "Korhogo",
    "country": "Cote d'Ivoire",
    "iata": "HGO",
    "icao": "DIKO",
    "lat": 9.387183,
    "lon": -5.556664,
    "alt": 1214,
    "tzn": 0,
    "dst": "N",
    "tzndb": "Africa/Abidjan"
  }
  {
    "id": 257,
    "name": "Man",
    "city": "Man",
    "country": "Cote d'Ivoire",
    "iata": "MJC",
    "icao": "DIMN",
    "lat": 7.272069,
    "lon": -7.587364,
    "alt": 1089,
    "tzn": 0,
    "dst": "N",
    "tzndb": "Africa/Abidjan"
  }
  {
    "id": 258,
    "name": "San Pedro",
    "city": "San Pedro",
    "country": "Cote d'Ivoire",
    "iata": "SPY",
    "icao": "DISP",
    "lat": 4.746717,
    "lon": -6.660817,
    "alt": 26,
    "tzn": 0,
    "dst": "N",
    "tzndb": "Africa/Abidjan"
  }
  {
    "id": 259,
    "name": "Yamoussoukro",
    "city": "Yamoussoukro",
    "country": "Cote d'Ivoire",
    "iata": "ASK",
    "icao": "DIYO",
    "lat": 6.903167,
    "lon": -5.365581,
    "alt": 699,
    "tzn": 0,
    "dst": "N",
    "tzndb": "Africa/Abidjan"
  }
  {
    "id": 260,
    "name": "Nnamdi Azikiwe Intl",
    "city": "Abuja",
    "country": "Nigeria",
    "iata": "ABV",
    "icao": "DNAA",
    "lat": 9.006792,
    "lon": 7.263172,
    "alt": 1123,
    "tzn": 1,
    "dst": "N",
    "tzndb": "Africa/Lagos"
  }
  {
    "id": 261,
    "name": "Akure",
    "city": "Akure",
    "country": "Nigeria",
    "iata": "AKR",
    "icao": "DNAK",
    "lat": 7.246739,
    "lon": 5.301008,
    "alt": 1100,
    "tzn": 1,
    "dst": "N",
    "tzndb": "Africa/Lagos"
  }
  {
    "id": 262,
    "name": "Benin",
    "city": "Benin",
    "country": "Nigeria",
    "iata": "BNI",
    "icao": "DNBE",
    "lat": 6.316981,
    "lon": 5.599503,
    "alt": 258,
    "tzn": 1,
    "dst": "N",
    "tzndb": "Africa/Lagos"
  }
  {
    "id": 263,
    "name": "Calabar",
    "city": "Calabar",
    "country": "Nigeria",
    "iata": "CBQ",
    "icao": "DNCA",
    "lat": 4.976019,
    "lon": 8.347197,
    "alt": 210,
    "tzn": 1,
    "dst": "N",
    "tzndb": "Africa/Lagos"
  }
  {
    "id": 264,
    "name": "Enugu",
    "city": "Enugu",
    "country": "Nigeria",
    "iata": "ENU",
    "icao": "DNEN",
    "lat": 6.474272,
    "lon": 7.561961,
    "alt": 466,
    "tzn": 1,
    "dst": "N",
    "tzndb": "Africa/Lagos"
  }
  {
    "id": 265,
    "name": "Gusau",
    "city": "Gusau",
    "country": "Nigeria",
    "iata": "QUS",
    "icao": "DNGU",
    "lat": 12.171667,
    "lon": 6.696111,
    "alt": 1520,
    "tzn": 1,
    "dst": "N",
    "tzndb": "Africa/Lagos"
  }
  {
    "id": 266,
    "name": "Ibadan",
    "city": "Ibadan",
    "country": "Nigeria",
    "iata": "IBA",
    "icao": "DNIB",
    "lat": 7.362458,
    "lon": 3.978333,
    "alt": 725,
    "tzn": 1,
    "dst": "N",
    "tzndb": "Africa/Lagos"
  }
  {
    "id": 267,
    "name": "Ilorin",
    "city": "Ilorin",
    "country": "Nigeria",
    "iata": "ILR",
    "icao": "DNIL",
    "lat": 8.440211,
    "lon": 4.493919,
    "alt": 1126,
    "tzn": 1,
    "dst": "N",
    "tzndb": "Africa/Lagos"
  }
  {
    "id": 268,
    "name": "Yakubu Gowon",
    "city": "Jos",
    "country": "Nigeria",
    "iata": "JOS",
    "icao": "DNJO",
    "lat": 9.639828,
    "lon": 8.86905,
    "alt": 4232,
    "tzn": 1,
    "dst": "N",
    "tzndb": "Africa/Lagos"
  }
  {
    "id": 269,
    "name": "Kaduna",
    "city": "Kaduna",
    "country": "Nigeria",
    "iata": "KAD",
    "icao": "DNKA",
    "lat": 10.696025,
    "lon": 7.320114,
    "alt": 2073,
    "tzn": 1,
    "dst": "N",
    "tzndb": "Africa/Lagos"
  }
  {
    "id": 270,
    "name": "Mallam Aminu Intl",
    "city": "Kano",
    "country": "Nigeria",
    "iata": "KAN",
    "icao": "DNKN",
    "lat": 12.047589,
    "lon": 8.524622,
    "alt": 1562,
    "tzn": 1,
    "dst": "N",
    "tzndb": "Africa/Lagos"
  }
  {
    "id": 271,
    "name": "Maiduguri",
    "city": "Maiduguri",
    "country": "Nigeria",
    "iata": "MIU",
    "icao": "DNMA",
    "lat": 11.855347,
    "lon": 13.08095,
    "alt": 1099,
    "tzn": 1,
    "dst": "N",
    "tzndb": "Africa/Lagos"
  }
  {
    "id": 272,
    "name": "Makurdi",
    "city": "Makurdi",
    "country": "Nigeria",
    "iata": "MDI",
    "icao": "DNMK",
    "lat": 7.703883,
    "lon": 8.613939,
    "alt": 371,
    "tzn": 1,
    "dst": "N",
    "tzndb": "Africa/Lagos"
  }
  {
    "id": 273,
    "name": "Murtala Muhammed",
    "city": "Lagos",
    "country": "Nigeria",
    "iata": "LOS",
    "icao": "DNMM",
    "lat": 6.577369,
    "lon": 3.321156,
    "alt": 135,
    "tzn": 1,
    "dst": "N",
    "tzndb": "Africa/Lagos"
  }
  {
    "id": 274,
    "name": "Minna New",
    "city": "Minna",
    "country": "Nigeria",
    "iata": "MXJ",
    "icao": "DNMN",
    "lat": 9.652172,
    "lon": 6.462256,
    "alt": 834,
    "tzn": 1,
    "dst": "N",
    "tzndb": "Africa/Lagos"
  }
  {
    "id": 275,
    "name": "Port Harcourt Intl",
    "city": "Port Hartcourt",
    "country": "Nigeria",
    "iata": "PHC",
    "icao": "DNPO",
    "lat": 5.015494,
    "lon": 6.949594,
    "alt": 87,
    "tzn": 1,
    "dst": "N",
    "tzndb": "Africa/Lagos"
  }
  {
    "id": 276,
    "name": "Sadiq Abubakar Iii Intl",
    "city": "Sokoto",
    "country": "Nigeria",
    "iata": "SKO",
    "icao": "DNSO",
    "lat": 12.916322,
    "lon": 5.207189,
    "alt": 1010,
    "tzn": 1,
    "dst": "N",
    "tzndb": "Africa/Lagos"
  }
  {
    "id": 277,
    "name": "Yola",
    "city": "Yola",
    "country": "Nigeria",
    "iata": "YOL",
    "icao": "DNYO",
    "lat": 9.257553,
    "lon": 12.430422,
    "alt": 599,
    "tzn": 1,
    "dst": "N",
    "tzndb": "Africa/Lagos"
  }
  {
    "id": 278,
    "name": "Zaria",
    "city": "Zaria",
    "country": "Nigeria",
    "iata": "ZAR",
    "icao": "DNZA",
    "lat": 11.130192,
    "lon": 7.685806,
    "alt": 2170,
    "tzn": 1,
    "dst": "N",
    "tzndb": "Africa/Lagos"
  }
  {
    "id": 279,
    "name": "Maradi",
    "city": "Maradi",
    "country": "Niger",
    "iata": "MFQ",
    "icao": "DRRM",
    "lat": 13.502531,
    "lon": 7.126753,
    "alt": 1240,
    "tzn": 1,
    "dst": "N",
    "tzndb": "Africa/Niamey"
  }
  {
    "id": 280,
    "name": "Diori Hamani",
    "city": "Niamey",
    "country": "Niger",
    "iata": "NIM",
    "icao": "DRRN",
    "lat": 13.481547,
    "lon": 2.183614,
    "alt": 732,
    "tzn": 1,
    "dst": "N",
    "tzndb": "Africa/Niamey"
  }
  {
    "id": 281,
    "name": "Tahoua",
    "city": "Tahoua",
    "country": "Niger",
    "iata": "THZ",
    "icao": "DRRT",
    "lat": 14.875658,
    "lon": 5.265358,
    "alt": 1266,
    "tzn": 1,
    "dst": "N",
    "tzndb": "Africa/Niamey"
  }
  {
    "id": 282,
    "name": "Manu Dayak",
    "city": "Agadez",
    "country": "Niger",
    "iata": "AJY",
    "icao": "DRZA",
    "lat": 16.965997,
    "lon": 8.000114,
    "alt": 1657,
    "tzn": 1,
    "dst": "N",
    "tzndb": "Africa/Niamey"
  }
  {
    "id": 283,
    "name": "Dirkou",
    "city": "Dirkou",
    "country": "Niger",
    "iata": "",
    "icao": "DRZD",
    "lat": 18.968703,
    "lon": 12.86865,
    "alt": 1273,
    "tzn": 1,
    "dst": "N",
    "tzndb": "Africa/Niamey"
  }
  {
    "id": 284,
    "name": "Diffa",
    "city": "Diffa",
    "country": "Niger",
    "iata": "",
    "icao": "DRZF",
    "lat": 13.372894,
    "lon": 12.626686,
    "alt": 994,
    "tzn": 1,
    "dst": "N",
    "tzndb": "Africa/Niamey"
  }
  {
    "id": 285,
    "name": "Zinder",
    "city": "Zinder",
    "country": "Niger",
    "iata": "ZND",
    "icao": "DRZR",
    "lat": 13.778997,
    "lon": 8.983761,
    "alt": 1516,
    "tzn": 1,
    "dst": "N",
    "tzndb": "Africa/Niamey"
  }
  {
    "id": 286,
    "name": "Habib Bourguiba Intl",
    "city": "Monastir",
    "country": "Tunisia",
    "iata": "MIR",
    "icao": "DTMB",
    "lat": 35.758056,
    "lon": 10.754722,
    "alt": 9,
    "tzn": 1,
    "dst": "E",
    "tzndb": "Africa/Tunis"
  }
  {
    "id": 287,
    "name": "Carthage",
    "city": "Tunis",
    "country": "Tunisia",
    "iata": "TUN",
    "icao": "DTTA",
    "lat": 36.851033,
    "lon": 10.227217,
    "alt": 22,
    "tzn": 1,
    "dst": "E",
    "tzndb": "Africa/Tunis"
  }
  {
    "id": 288,
    "name": "Sidi Ahmed Air Base",
    "city": "Bizerte",
    "country": "Tunisia",
    "iata": "",
    "icao": "DTTB",
    "lat": 37.245447,
    "lon": 9.791453,
    "alt": 20,
    "tzn": 1,
    "dst": "E",
    "tzndb": "Africa/Tunis"
  }
  {
    "id": 289,
    "name": "Remada",
    "city": "Remada",
    "country": "Tunisia",
    "iata": "",
    "icao": "DTTD",
    "lat": 32.306156,
    "lon": 10.382108,
    "alt": 1004,
    "tzn": 1,
    "dst": "E",
    "tzndb": "Africa/Tunis"
  }
  {
    "id": 290,
    "name": "Gafsa",
    "city": "Gafsa",
    "country": "Tunisia",
    "iata": "GAF",
    "icao": "DTTF",
    "lat": 34.422022,
    "lon": 8.822503,
    "alt": 1060,
    "tzn": 1,
    "dst": "E",
    "tzndb": "Africa/Tunis"
  }
  {
    "id": 291,
    "name": "Gabes",
    "city": "Gabes",
    "country": "Tunisia",
    "iata": "GAE",
    "icao": "DTTG",
    "lat": 33.876919,
    "lon": 10.103333,
    "alt": 26,
    "tzn": 1,
    "dst": "E",
    "tzndb": "Africa/Tunis"
  }
  {
    "id": 292,
    "name": "Borj El Amri",
    "city": "Bordj El Amri",
    "country": "Tunisia",
    "iata": "",
    "icao": "DTTI",
    "lat": 36.721339,
    "lon": 9.943147,
    "alt": 108,
    "tzn": 1,
    "dst": "E",
    "tzndb": "Africa/Tunis"
  }
  {
    "id": 293,
    "name": "Zarzis",
    "city": "Djerba",
    "country": "Tunisia",
    "iata": "DJE",
    "icao": "DTTJ",
    "lat": 33.875031,
    "lon": 10.775461,
    "alt": 19,
    "tzn": 1,
    "dst": "E",
    "tzndb": "Africa/Tunis"
  }
  {
    "id": 294,
    "name": "El Borma",
    "city": "El Borma",
    "country": "Tunisia",
    "iata": "EBM",
    "icao": "DTTR",
    "lat": 31.704281,
    "lon": 9.254619,
    "alt": 827,
    "tzn": 1,
    "dst": "E",
    "tzndb": "Africa/Tunis"
  }
  {
    "id": 295,
    "name": "Thyna",
    "city": "Sfax",
    "country": "Tunisia",
    "iata": "SFA",
    "icao": "DTTX",
    "lat": 34.717953,
    "lon": 10.690972,
    "alt": 85,
    "tzn": 1,
    "dst": "E",
    "tzndb": "Africa/Tunis"
  }
  {
    "id": 296,
    "name": "Nefta",
    "city": "Tozeur",
    "country": "Tunisia",
    "iata": "TOE",
    "icao": "DTTZ",
    "lat": 33.939722,
    "lon": 8.110556,
    "alt": 287,
    "tzn": 1,
    "dst": "E",
    "tzndb": "Africa/Tunis"
  }
  {
    "id": 297,
    "name": "Niamtougou International",
    "city": "Niatougou",
    "country": "Togo",
    "iata": "LRL",
    "icao": "DXNG",
    "lat": 9.767333,
    "lon": 1.09125,
    "alt": 1515,
    "tzn": 0,
    "dst": "N",
    "tzndb": "Africa/Lome"
  }
  {
    "id": 298,
    "name": "Gnassingbe Eyadema Intl",
    "city": "Lome",
    "country": "Togo",
    "iata": "LFW",
    "icao": "DXXX",
    "lat": 6.165611,
    "lon": 1.254511,
    "alt": 72,
    "tzn": 0,
    "dst": "N",
    "tzndb": "Africa/Lome"
  }
  {
    "id": 299,
    "name": "Deurne",
    "city": "Antwerp",
    "country": "Belgium",
    "iata": "ANR",
    "icao": "EBAW",
    "lat": 51.189444,
    "lon": 4.460278,
    "alt": 39,
    "tzn": 1,
    "dst": "E",
    "tzndb": "Europe/Brussels"
  }
  {
    "id": 300,
    "name": "Beauvechain",
    "city": "Beauvechain",
    "country": "Belgium",
    "iata": "",
    "icao": "EBBE",
    "lat": 50.75861,
    "lon": 4.768333,
    "alt": 370,
    "tzn": 1,
    "dst": "E",
    "tzndb": "Europe/Brussels"
  }
  {
    "id": 301,
    "name": "Kleine Brogel",
    "city": "Kleine Brogel",
    "country": "Belgium",
    "iata": "",
    "icao": "EBBL",
    "lat": 51.168333,
    "lon": 5.47,
    "alt": 200,
    "tzn": 1,
    "dst": "E",
    "tzndb": "Europe/Brussels"
  }
  {
    "id": 302,
    "name": "Brussels Natl",
    "city": "Brussels",
    "country": "Belgium",
    "iata": "BRU",
    "icao": "EBBR",
    "lat": 50.901389,
    "lon": 4.484444,
    "alt": 184,
    "tzn": 1,
    "dst": "E",
    "tzndb": "Europe/Brussels"
  }
  {
    "id": 303,
    "name": "Bertrix",
    "city": "Bertrix",
    "country": "Belgium",
    "iata": "",
    "icao": "EBBX",
    "lat": 49.891667,
    "lon": 5.223889,
    "alt": 1514,
    "tzn": 1,
    "dst": "E",
    "tzndb": "Europe/Brussels"
  }
  {
    "id": 304,
    "name": "Brussels South",
    "city": "Charleroi",
    "country": "Belgium",
    "iata": "CRL",
    "icao": "EBCI",
    "lat": 50.459197,
    "lon": 4.453817,
    "alt": 614,
    "tzn": 1,
    "dst": "E",
    "tzndb": "Europe/Brussels"
  }
  {
    "id": 305,
    "name": "Chievres Ab",
    "city": "Chievres",
    "country": "Belgium",
    "iata": "",
    "icao": "EBCV",
    "lat": 50.575833,
    "lon": 3.831,
    "alt": 193,
    "tzn": 1,
    "dst": "E",
    "tzndb": "Europe/Brussels"
  }
  {
    "id": 306,
    "name": "Koksijde",
    "city": "Koksijde",
    "country": "Belgium",
    "iata": "",
    "icao": "EBFN",
    "lat": 51.090278,
    "lon": 2.652778,
    "alt": 20,
    "tzn": 1,
    "dst": "E",
    "tzndb": "Europe/Brussels"
  }
  {
    "id": 307,
    "name": "Florennes",
    "city": "Florennes",
    "country": "Belgium",
    "iata": "",
    "icao": "EBFS",
    "lat": 50.243333,
    "lon": 4.645833,
    "alt": 935,
    "tzn": 1,
    "dst": "E",
    "tzndb": "Europe/Brussels"
  }
  {
    "id": 308,
    "name": "Wevelgem",
    "city": "Kortrijk-vevelgem",
    "country": "Belgium",
    "iata": "QKT",
    "icao": "EBKT",
    "lat": 50.817222,
    "lon": 3.204722,
    "alt": 64,
    "tzn": 1,
    "dst": "E",
    "tzndb": "Europe/Brussels"
  }
  {
    "id": 309,
    "name": "Liege",
    "city": "Liege",
    "country": "Belgium",
    "iata": "LGG",
    "icao": "EBLG",
    "lat": 50.637417,
    "lon": 5.443222,
    "alt": 659,
    "tzn": 1,
    "dst": "E",
    "tzndb": "Europe/Brussels"
  }
  {
    "id": 310,
    "name": "Oostende",
    "city": "Ostend",
    "country": "Belgium",
    "iata": "OST",
    "icao": "EBOS",
    "lat": 51.198889,
    "lon": 2.862222,
    "alt": 13,
    "tzn": 1,
    "dst": "E",
    "tzndb": "Europe/Brussels"
  }
  {
    "id": 311,
    "name": "Zutendaal",
    "city": "Zutendaal",
    "country": "Belgium",
    "iata": "",
    "icao": "EBSL",
    "lat": 50.9475,
    "lon": 5.590556,
    "alt": 312,
    "tzn": 1,
    "dst": "E",
    "tzndb": "Europe/Brussels"
  }
  {
    "id": 312,
    "name": "Sint Truiden",
    "city": "Sint-truiden",
    "country": "Belgium",
    "iata": "",
    "icao": "EBST",
    "lat": 50.791944,
    "lon": 5.201667,
    "alt": 246,
    "tzn": 1,
    "dst": "E",
    "tzndb": "Europe/Brussels"
  }
  {
    "id": 313,
    "name": "Saint Hubert Mil",
    "city": "St.-hubert",
    "country": "Belgium",
    "iata": "",
    "icao": "EBSU",
    "lat": 50.035833,
    "lon": 5.404167,
    "alt": 1930,
    "tzn": 1,
    "dst": "E",
    "tzndb": "Europe/Brussels"
  }
  {
    "id": 314,
    "name": "Ursel",
    "city": "Ursel",
    "country": "Belgium",
    "iata": "",
    "icao": "EBUL",
    "lat": 51.144133,
    "lon": 3.474361,
    "alt": 95,
    "tzn": 1,
    "dst": "E",
    "tzndb": "Europe/Brussels"
  }
  {
    "id": 315,
    "name": "Weelde",
    "city": "Weelde",
    "country": "Belgium",
    "iata": "",
    "icao": "EBWE",
    "lat": 51.394783,
    "lon": 4.960194,
    "alt": 105,
    "tzn": 1,
    "dst": "E",
    "tzndb": "Europe/Brussels"
  }
  {
    "id": 316,
    "name": "Zoersel",
    "city": "Zoersel",
    "country": "Belgium",
    "iata": "",
    "icao": "EBZR",
    "lat": 51.264722,
    "lon": 4.753333,
    "alt": 53,
    "tzn": 1,
    "dst": "E",
    "tzndb": "Europe/Brussels"
  }
  {
    "id": 317,
    "name": "Bautzen",
    "city": "Bautzen",
    "country": "Germany",
    "iata": "BBJ",
    "icao": "EDAB",
    "lat": 51.193531,
    "lon": 14.519747,
    "alt": 568,
    "tzn": 1,
    "dst": "E",
    "tzndb": "Europe/Berlin"
  }
  {
    "id": 318,
    "name": "Altenburg Nobitz",
    "city": "Altenburg",
    "country": "Germany",
    "iata": "AOC",
    "icao": "EDAC",
    "lat": 50.981817,
    "lon": 12.506361,
    "alt": 640,
    "tzn": 1,
    "dst": "E",
    "tzndb": "Europe/Berlin"
  }
  {
    "id": 319,
    "name": "Dessau",
    "city": "Dessau",
    "country": "Germany",
    "iata": "",
    "icao": "EDAD",
    "lat": 51.831828,
    "lon": 12.184033,
    "alt": 187,
    "tzn": 1,
    "dst": "E",
    "tzndb": "Europe/Berlin"
  }
  {
    "id": 320,
    "name": "Eisenhuttenstadt",
    "city": "Eisenhuettenstadt",
    "country": "Germany",
    "iata": "",
    "icao": "EDAE",
    "lat": 52.197333,
    "lon": 14.585667,
    "alt": 149,
    "tzn": 1,
    "dst": "E",
    "tzndb": "Europe/Berlin"
  }
  {
    "id": 6891,
    "name": "Putnam County Airport",
    "city": "Greencastle",
    "country": "United States",
    "iata": "4I7",
    "icao": "\\N",
    "lat": 39.6335556,
    "lon": -86.8138056,
    "alt": 842,
    "tzn": -5,
    "dst": "U",
    "tzndb": "America/New_York"
  }
  {
    "id": 322,
    "name": "Grossenhain",
    "city": "Suhl",
    "country": "Germany",
    "iata": "",
    "icao": "EDAK",
    "lat": 51.308111,
    "lon": 13.554973,
    "alt": 417,
    "tzn": 1,
    "dst": "E",
    "tzndb": "Europe/Berlin"
  }
  {
    "id": 323,
    "name": "Merseburg",
    "city": "Muehlhausen",
    "country": "Germany",
    "iata": "",
    "icao": "EDAM",
    "lat": 51.363,
    "lon": 11.940833,
    "alt": 340,
    "tzn": 1,
    "dst": "E",
    "tzndb": "Europe/Berlin"
  }
  {
    "id": 324,
    "name": "Halle Oppin",
    "city": "Halle",
    "country": "Germany",
    "iata": "",
    "icao": "EDAQ",
    "lat": 51.552,
    "lon": 12.052667,
    "alt": 347,
    "tzn": 1,
    "dst": "E",
    "tzndb": "Europe/Berlin"
  }
  {
    "id": 325,
    "name": "Riesa Gohlis",
    "city": "Riesa",
    "country": "Germany",
    "iata": "",
    "icao": "EDAU",
    "lat": 51.2935,
    "lon": 13.356,
    "alt": 322,
    "tzn": 1,
    "dst": "E",
    "tzndb": "Europe/Berlin"
  }
  {
    "id": 326,
    "name": "Rechlin Larz",
    "city": "Rechlin-laerz",
    "country": "Germany",
    "iata": "",
    "icao": "EDAX",
    "lat": 53.306417,
    "lon": 12.753139,
    "alt": 220,
    "tzn": 1,
    "dst": "E",
    "tzndb": "Europe/Berlin"
  }
  {
    "id": 327,
    "name": "Strausberg",
    "city": "Strausberg",
    "country": "Germany",
    "iata": "",
    "icao": "EDAY",
    "lat": 52.579978,
    "lon": 13.915683,
    "alt": 263,
    "tzn": 1,
    "dst": "E",
    "tzndb": "Europe/Berlin"
  }
  {
    "id": 328,
    "name": "Schonhagen",
    "city": "Schoenhagen",
    "country": "Germany",
    "iata": "",
    "icao": "EDAZ",
    "lat": 52.203258,
    "lon": 13.158408,
    "alt": 131,
    "tzn": 1,
    "dst": "E",
    "tzndb": "Europe/Berlin"
  }
  {
    "id": 329,
    "name": "Barth",
    "city": "Barth",
    "country": "Germany",
    "iata": "BBH",
    "icao": "EDBH",
    "lat": 54.33754,
    "lon": 12.699705,
    "alt": 23,
    "tzn": 1,
    "dst": "E",
    "tzndb": "Europe/Berlin"
  }
  {
    "id": 330,
    "name": "Jena Schongleina",
    "city": "Jena",
    "country": "Germany",
    "iata": "",
    "icao": "EDBJ",
    "lat": 50.915161,
    "lon": 11.714519,
    "alt": 1228,
    "tzn": 1,
    "dst": "E",
    "tzndb": "Europe/Berlin"
  }
  {
    "id": 331,
    "name": "Kyritz",
    "city": "Kyritz",
    "country": "Germany",
    "iata": "",
    "icao": "EDBK",
    "lat": 52.918833,
    "lon": 12.425333,
    "alt": 130,
    "tzn": 1,
    "dst": "E",
    "tzndb": "Europe/Berlin"
  }
  {
    "id": 332,
    "name": "Magdeburg",
    "city": "Magdeburg",
    "country": "Germany",
    "iata": "",
    "icao": "EDBM",
    "lat": 52.073658,
    "lon": 11.626467,
    "alt": 268,
    "tzn": 1,
    "dst": "E",
    "tzndb": "Europe/Berlin"
  }
  {
    "id": 333,
    "name": "Rothenburg Gorlitz",
    "city": "Rothenburg/ol",
    "country": "Germany",
    "iata": "",
    "icao": "EDBR",
    "lat": 51.363167,
    "lon": 14.95,
    "alt": 517,
    "tzn": 1,
    "dst": "E",
    "tzndb": "Europe/Berlin"
  }
  {
    "id": 334,
    "name": "Anklam",
    "city": "Anklam",
    "country": "Germany",
    "iata": "",
    "icao": "EDCA",
    "lat": 53.8327,
    "lon": 13.669131,
    "alt": 18,
    "tzn": 1,
    "dst": "E",
    "tzndb": "Europe/Berlin"
  }
  {
    "id": 335,
    "name": "Cottbus Drewitz",
    "city": "Cottbus",
    "country": "Germany",
    "iata": "",
    "icao": "EDCD",
    "lat": 51.889475,
    "lon": 14.531986,
    "alt": 274,
    "tzn": 1,
    "dst": "E",
    "tzndb": "Europe/Berlin"
  }
  {
    "id": 336,
    "name": "Kamenz",
    "city": "Kamenz",
    "country": "Germany",
    "iata": "",
    "icao": "EDCM",
    "lat": 51.29625,
    "lon": 14.129,
    "alt": 495,
    "tzn": 1,
    "dst": "E",
    "tzndb": "Europe/Berlin"
  }
  {
    "id": 337,
    "name": "Schonefeld",
    "city": "Berlin",
    "country": "Germany",
    "iata": "SXF",
    "icao": "EDDB",
    "lat": 52.380001,
    "lon": 13.5225,
    "alt": 157,
    "tzn": 1,
    "dst": "E",
    "tzndb": "Europe/Berlin"
  }
  {
    "id": 338,
    "name": "Dresden",
    "city": "Dresden",
    "country": "Germany",
    "iata": "DRS",
    "icao": "EDDC",
    "lat": 51.132767,
    "lon": 13.767161,
    "alt": 755,
    "tzn": 1,
    "dst": "E",
    "tzndb": "Europe/Berlin"
  }
  {
    "id": 339,
    "name": "Erfurt",
    "city": "Erfurt",
    "country": "Germany",
    "iata": "ERF",
    "icao": "EDDE",
    "lat": 50.979811,
    "lon": 10.958106,
    "alt": 1036,
    "tzn": 1,
    "dst": "E",
    "tzndb": "Europe/Berlin"
  }
  {
    "id": 340,
    "name": "Frankfurt Main",
    "city": "Frankfurt",
    "country": "Germany",
    "iata": "FRA",
    "icao": "EDDF",
    "lat": 50.026421,
    "lon": 8.543125,
    "alt": 364,
    "tzn": 1,
    "dst": "E",
    "tzndb": "Europe/Berlin"
  }
  {
    "id": 341,
    "name": "Munster Osnabruck",
    "city": "Munster",
    "country": "Germany",
    "iata": "FMO",
    "icao": "EDDG",
    "lat": 52.134642,
    "lon": 7.684831,
    "alt": 160,
    "tzn": 1,
    "dst": "E",
    "tzndb": "Europe/Berlin"
  }
  {
    "id": 342,
    "name": "Hamburg",
    "city": "Hamburg",
    "country": "Germany",
    "iata": "HAM",
    "icao": "EDDH",
    "lat": 53.630389,
    "lon": 9.988228,
    "alt": 53,
    "tzn": 1,
    "dst": "E",
    "tzndb": "Europe/Berlin"
  }
  {
    "id": 343,
    "name": "Tempelhof",
    "city": "Berlin",
    "country": "Germany",
    "iata": "THF",
    "icao": "EDDI",
    "lat": 52.473025,
    "lon": 13.403944,
    "alt": 167,
    "tzn": 1,
    "dst": "E",
    "tzndb": "Europe/Berlin"
  }
  {
    "id": 344,
    "name": "Koln Bonn",
    "city": "Cologne",
    "country": "Germany",
    "iata": "CGN",
    "icao": "EDDK",
    "lat": 50.865917,
    "lon": 7.142744,
    "alt": 302,
    "tzn": 1,
    "dst": "E",
    "tzndb": "Europe/Berlin"
  }
  {
    "id": 345,
    "name": "Dusseldorf",
    "city": "Duesseldorf",
    "country": "Germany",
    "iata": "DUS",
    "icao": "EDDL",
    "lat": 51.289453,
    "lon": 6.766775,
    "alt": 147,
    "tzn": 1,
    "dst": "E",
    "tzndb": "Europe/Berlin"
  }
  {
    "id": 346,
    "name": "Franz Josef Strauss",
    "city": "Munich",
    "country": "Germany",
    "iata": "MUC",
    "icao": "EDDM",
    "lat": 48.353783,
    "lon": 11.786086,
    "alt": 1487,
    "tzn": 1,
    "dst": "E",
    "tzndb": "Europe/Berlin"
  }
  {
    "id": 347,
    "name": "Nurnberg",
    "city": "Nuernberg",
    "country": "Germany",
    "iata": "NUE",
    "icao": "EDDN",
    "lat": 49.4987,
    "lon": 11.066897,
    "alt": 1046,
    "tzn": 1,
    "dst": "E",
    "tzndb": "Europe/Berlin"
  }
  {
    "id": 348,
    "name": "Leipzig Halle",
    "city": "Leipzig",
    "country": "Germany",
    "iata": "LEJ",
    "icao": "EDDP",
    "lat": 51.432447,
    "lon": 12.241633,
    "alt": 465,
    "tzn": 1,
    "dst": "E",
    "tzndb": "Europe/Berlin"
  }
  {
    "id": 349,
    "name": "Saarbrucken",
    "city": "Saarbruecken",
    "country": "Germany",
    "iata": "SCN",
    "icao": "EDDR",
    "lat": 49.214553,
    "lon": 7.109508,
    "alt": 1058,
    "tzn": 1,
    "dst": "E",
    "tzndb": "Europe/Berlin"
  }
  {
    "id": 350,
    "name": "Stuttgart",
    "city": "Stuttgart",
    "country": "Germany",
    "iata": "STR",
    "icao": "EDDS",
    "lat": 48.689878,
    "lon": 9.221964,
    "alt": 1276,
    "tzn": 1,
    "dst": "E",
    "tzndb": "Europe/Berlin"
  }
  {
    "id": 351,
    "name": "Tegel",
    "city": "Berlin",
    "country": "Germany",
    "iata": "TXL",
    "icao": "EDDT",
    "lat": 52.559686,
    "lon": 13.287711,
    "alt": 122,
    "tzn": 1,
    "dst": "E",
    "tzndb": "Europe/Berlin"
  }
  {
    "id": 352,
    "name": "Hannover",
    "city": "Hannover",
    "country": "Germany",
    "iata": "HAJ",
    "icao": "EDDV",
    "lat": 52.461056,
    "lon": 9.685078,
    "alt": 183,
    "tzn": 1,
    "dst": "E",
    "tzndb": "Europe/Berlin"
  }
  {
    "id": 353,
    "name": "Neuenland",
    "city": "Bremen",
    "country": "Germany",
    "iata": "BRE",
    "icao": "EDDW",
    "lat": 53.0475,
    "lon": 8.786667,
    "alt": 14,
    "tzn": 1,
    "dst": "E",
    "tzndb": "Europe/Berlin"
  }
  {
    "id": 354,
    "name": "Egelsbach",
    "city": "Egelsbach",
    "country": "Germany",
    "iata": "",
    "icao": "EDFE",
    "lat": 49.960833,
    "lon": 8.6415,
    "alt": 385,
    "tzn": 1,
    "dst": "E",
    "tzndb": "Europe/Berlin"
  }
  {
    "id": 355,
    "name": "Frankfurt Hahn",
    "city": "Hahn",
    "country": "Germany",
    "iata": "HHN",
    "icao": "EDFH",
    "lat": 49.948672,
    "lon": 7.263892,
    "alt": 1649,
    "tzn": 1,
    "dst": "E",
    "tzndb": "Europe/Berlin"
  }
  {
    "id": 356,
    "name": "Mannheim City",
    "city": "Mannheim",
    "country": "Germany",
    "iata": "MHG",
    "icao": "EDFM",
    "lat": 49.472706,
    "lon": 8.514264,
    "alt": 309,
    "tzn": 1,
    "dst": "E",
    "tzndb": "Europe/Berlin"
  }
  {
    "id": 357,
    "name": "Allendorf Eder",
    "city": "Allendorf",
    "country": "Germany",
    "iata": "",
    "icao": "EDFQ",
    "lat": 51.034878,
    "lon": 8.680839,
    "alt": 1164,
    "tzn": 1,
    "dst": "E",
    "tzndb": "Europe/Berlin"
  }
  {
    "id": 358,
    "name": "Worms",
    "city": "Worms",
    "country": "Germany",
    "iata": "",
    "icao": "EDFV",
    "lat": 49.606511,
    "lon": 8.3684,
    "alt": 295,
    "tzn": 1,
    "dst": "E",
    "tzndb": "Europe/Berlin"
  }
  {
    "id": 359,
    "name": "Mainz Finthen",
    "city": "Mainz",
    "country": "Germany",
    "iata": "",
    "icao": "EDFZ",
    "lat": 49.968931,
    "lon": 8.148336,
    "alt": 760,
    "tzn": 1,
    "dst": "E",
    "tzndb": "Europe/Berlin"
  }
  {
    "id": 360,
    "name": "Eisenach Kindel",
    "city": "Eisenach",
    "country": "Germany",
    "iata": "",
    "icao": "EDGE",
    "lat": 50.992797,
    "lon": 10.472711,
    "alt": 1101,
    "tzn": 1,
    "dst": "E",
    "tzndb": "Europe/Berlin"
  }
  {
    "id": 361,
    "name": "Siegerland",
    "city": "Siegerland",
    "country": "Germany",
    "iata": "",
    "icao": "EDGS",
    "lat": 50.707658,
    "lon": 8.082969,
    "alt": 1966,
    "tzn": 1,
    "dst": "E",
    "tzndb": "Europe/Berlin"
  }
  {
    "id": 362,
    "name": "Hamburg Finkenwerder",
    "city": "Hamburg",
    "country": "Germany",
    "iata": "XFW",
    "icao": "EDHI",
    "lat": 53.535886,
    "lon": 9.837025,
    "alt": 22,
    "tzn": 1,
    "dst": "E",
    "tzndb": "Europe/Berlin"
  }
  {
    "id": 363,
    "name": "Kiel Holtenau",
    "city": "Kiel",
    "country": "Germany",
    "iata": "KEL",
    "icao": "EDHK",
    "lat": 54.3795,
    "lon": 10.145167,
    "alt": 101,
    "tzn": 1,
    "dst": "E",
    "tzndb": "Europe/Berlin"
  }
  {
    "id": 364,
    "name": "Lubeck Blankensee",
    "city": "Luebeck",
    "country": "Germany",
    "iata": "LBC",
    "icao": "EDHL",
    "lat": 53.805367,
    "lon": 10.719222,
    "alt": 53,
    "tzn": 1,
    "dst": "E",
    "tzndb": "Europe/Berlin"
  }
  {
    "id": 365,
    "name": "Dahlemer Binz",
    "city": "Dahlemer Binz",
    "country": "Germany",
    "iata": "",
    "icao": "EDKV",
    "lat": 50.405888,
    "lon": 6.528083,
    "alt": 1896,
    "tzn": 1,
    "dst": "E",
    "tzndb": "Europe/Berlin"
  }
  {
    "id": 366,
    "name": "Meinerzhagen",
    "city": "Meinerzhagen",
    "country": "Germany",
    "iata": "",
    "icao": "EDKZ",
    "lat": 51.099445,
    "lon": 7.601944,
    "alt": 1548,
    "tzn": 1,
    "dst": "E",
    "tzndb": "Europe/Berlin"
  }
  {
    "id": 367,
    "name": "Arnsberg Menden",
    "city": "Arnsberg",
    "country": "Germany",
    "iata": "ZCA",
    "icao": "EDLA",
    "lat": 51.483333,
    "lon": 7.899333,
    "alt": 794,
    "tzn": 1,
    "dst": "E",
    "tzndb": "Europe/Berlin"
  }
  {
    "id": 368,
    "name": "Essen Mulheim",
    "city": "Essen",
    "country": "Germany",
    "iata": "ESS",
    "icao": "EDLE",
    "lat": 51.402333,
    "lon": 6.937333,
    "alt": 424,
    "tzn": 1,
    "dst": "E",
    "tzndb": "Europe/Berlin"
  }
  {
    "id": 369,
    "name": "Bielefeld",
    "city": "Bielefeld",
    "country": "Germany",
    "iata": "",
    "icao": "EDLI",
    "lat": 51.964833,
    "lon": 8.544833,
    "alt": 454,
    "tzn": 1,
    "dst": "E",
    "tzndb": "Europe/Berlin"
  }
  {
    "id": 370,
    "name": "Monchengladbach",
    "city": "Moenchengladbach",
    "country": "Germany",
    "iata": "MGL",
    "icao": "EDLN",
    "lat": 51.230356,
    "lon": 6.504494,
    "alt": 125,
    "tzn": 1,
    "dst": "E",
    "tzndb": "Europe/Berlin"
  }
  {
    "id": 371,
    "name": "Paderborn Lippstadt",
    "city": "Paderborn",
    "country": "Germany",
    "iata": "PAD",
    "icao": "EDLP",
    "lat": 51.614089,
    "lon": 8.616317,
    "alt": 699,
    "tzn": 1,
    "dst": "E",
    "tzndb": "Europe/Berlin"
  }
  {
    "id": 372,
    "name": "Stadtlohn Vreden",
    "city": "Stadtlohn",
    "country": "Germany",
    "iata": "",
    "icao": "EDLS",
    "lat": 51.995844,
    "lon": 6.840667,
    "alt": 157,
    "tzn": 1,
    "dst": "E",
    "tzndb": "Europe/Berlin"
  }
  {
    "id": 373,
    "name": "Dortmund",
    "city": "Dortmund",
    "country": "Germany",
    "iata": "DTM",
    "icao": "EDLW",
    "lat": 51.518314,
    "lon": 7.612242,
    "alt": 425,
    "tzn": 1,
    "dst": "E",
    "tzndb": "Europe/Berlin"
  }
  {
    "id": 374,
    "name": "Augsburg",
    "city": "Augsburg",
    "country": "Germany",
    "iata": "AGB",
    "icao": "EDMA",
    "lat": 48.425158,
    "lon": 10.931764,
    "alt": 1515,
    "tzn": 1,
    "dst": "E",
    "tzndb": "Europe/Berlin"
  }
  {
    "id": 375,
    "name": "Biberach An Der Riss",
    "city": "Biberach",
    "country": "Germany",
    "iata": "",
    "icao": "EDMB",
    "lat": 48.111,
    "lon": 9.762833,
    "alt": 1903,
    "tzn": 1,
    "dst": "E",
    "tzndb": "Europe/Berlin"
  }
  {
    "id": 376,
    "name": "Eggenfelden",
    "city": "Eggenfelden",
    "country": "Germany",
    "iata": "",
    "icao": "EDME",
    "lat": 48.396167,
    "lon": 12.723667,
    "alt": 1342,
    "tzn": 1,
    "dst": "E",
    "tzndb": "Europe/Berlin"
  }
  {
    "id": 377,
    "name": "Mindelheim Mattsies",
    "city": "Mindelheim",
    "country": "Germany",
    "iata": "",
    "icao": "EDMN",
    "lat": 48.108833,
    "lon": 10.524333,
    "alt": 1857,
    "tzn": 1,
    "dst": "E",
    "tzndb": "Europe/Berlin"
  }
  {
    "id": 378,
    "name": "Oberpfaffenhofen",
    "city": "Oberpfaffenhofen",
    "country": "Germany",
    "iata": "OBF",
    "icao": "EDMO",
    "lat": 48.081364,
    "lon": 11.283067,
    "alt": 1947,
    "tzn": 1,
    "dst": "E",
    "tzndb": "Europe/Berlin"
  }
  {
    "id": 379,
    "name": "Straubing",
    "city": "Straubing",
    "country": "Germany",
    "iata": "",
    "icao": "EDMS",
    "lat": 48.90095,
    "lon": 12.518186,
    "alt": 1054,
    "tzn": 1,
    "dst": "E",
    "tzndb": "Europe/Berlin"
  }
  {
    "id": 380,
    "name": "Vilshofen",
    "city": "Vilshofen",
    "country": "Germany",
    "iata": "",
    "icao": "EDMV",
    "lat": 48.635167,
    "lon": 13.195667,
    "alt": 991,
    "tzn": 1,
    "dst": "E",
    "tzndb": "Europe/Berlin"
  }
  {
    "id": 381,
    "name": "Leutkirch Unterzeil",
    "city": "Leutkirch",
    "country": "Germany",
    "iata": "",
    "icao": "EDNL",
    "lat": 47.859117,
    "lon": 10.014572,
    "alt": 2099,
    "tzn": 1,
    "dst": "E",
    "tzndb": "Europe/Berlin"
  }
  {
    "id": 382,
    "name": "Friedrichshafen",
    "city": "Friedrichshafen",
    "country": "Germany",
    "iata": "FDH",
    "icao": "EDNY",
    "lat": 47.671317,
    "lon": 9.511486,
    "alt": 1367,
    "tzn": 1,
    "dst": "E",
    "tzndb": "Europe/Berlin"
  }
  {
    "id": 383,
    "name": "Schwerin Parchim",
    "city": "Parchim",
    "country": "Germany",
    "iata": "SZW",
    "icao": "EDOP",
    "lat": 53.426997,
    "lon": 11.783436,
    "alt": 166,
    "tzn": 1,
    "dst": "E",
    "tzndb": "Europe/Berlin"
  }
  {
    "id": 384,
    "name": "Stendal Borstel",
    "city": "Stendal",
    "country": "Germany",
    "iata": "ZSN",
    "icao": "EDOV",
    "lat": 52.627778,
    "lon": 11.818333,
    "alt": 184,
    "tzn": 1,
    "dst": "E",
    "tzndb": "Europe/Berlin"
  }
  {
    "id": 385,
    "name": "Aalen Heidenheim Elchingen",
    "city": "Aalen-heidenheim",
    "country": "Germany",
    "iata": "",
    "icao": "EDPA",
    "lat": 48.777833,
    "lon": 10.264667,
    "alt": 1916,
    "tzn": 1,
    "dst": "E",
    "tzndb": "Europe/Berlin"
  }
  {
    "id": 386,
    "name": "Bayreuth",
    "city": "Bayreuth",
    "country": "Germany",
    "iata": "BYU",
    "icao": "EDQD",
    "lat": 49.984428,
    "lon": 11.638569,
    "alt": 1601,
    "tzn": 1,
    "dst": "E",
    "tzndb": "Europe/Berlin"
  }
